{"data":[{"id":"110000","name":"北京","pid":"100000","shortname":"北京","level":"1","citycode":"","zipcode":"","merger_name":"中国,北京","lng":"116.405285","lat":"39.904989","pinyin":"Beijing","city":[{"id":"110100","name":"北京市","pid":"110000","shortname":"北京","level":"2","citycode":"10","zipcode":"100000","merger_name":"中国,北京,北京市","lng":"116.405285","lat":"39.904989","pinyin":"Beijing","area":[{"id":"110101","name":"东城区","pid":"110100","shortname":"东城","level":"3","citycode":"10","zipcode":"100010","merger_name":"中国,北京,北京市,东城区","lng":"116.41005","lat":"39.93157","pinyin":"Dongcheng"},{"id":"110102","name":"西城区","pid":"110100","shortname":"西城","level":"3","citycode":"10","zipcode":"100032","merger_name":"中国,北京,北京市,西城区","lng":"116.36003","lat":"39.9305","pinyin":"Xicheng"},{"id":"110105","name":"朝阳区","pid":"110100","shortname":"朝阳","level":"3","citycode":"10","zipcode":"100020","merger_name":"中国,北京,北京市,朝阳区","lng":"116.48548","lat":"39.9484","pinyin":"Chaoyang"},{"id":"110106","name":"丰台区","pid":"110100","shortname":"丰台","level":"3","citycode":"10","zipcode":"100071","merger_name":"中国,北京,北京市,丰台区","lng":"116.28625","lat":"39.8585","pinyin":"Fengtai"},{"id":"110107","name":"石景山区","pid":"110100","shortname":"石景山","level":"3","citycode":"10","zipcode":"100043","merger_name":"中国,北京,北京市,石景山区","lng":"116.2229","lat":"39.90564","pinyin":"Shijingshan"},{"id":"110108","name":"海淀区","pid":"110100","shortname":"海淀","level":"3","citycode":"10","zipcode":"100089","merger_name":"中国,北京,北京市,海淀区","lng":"116.29812","lat":"39.95931","pinyin":"Haidian"},{"id":"110109","name":"门头沟区","pid":"110100","shortname":"门头沟","level":"3","citycode":"10","zipcode":"102300","merger_name":"中国,北京,北京市,门头沟区","lng":"116.10137","lat":"39.94043","pinyin":"Mentougou"},{"id":"110111","name":"房山区","pid":"110100","shortname":"房山","level":"3","citycode":"10","zipcode":"102488","merger_name":"中国,北京,北京市,房山区","lng":"116.14257","lat":"39.74786","pinyin":"Fangshan"},{"id":"110112","name":"通州区","pid":"110100","shortname":"通州","level":"3","citycode":"10","zipcode":"101149","merger_name":"中国,北京,北京市,通州区","lng":"116.65716","lat":"39.90966","pinyin":"Tongzhou"},{"id":"110113","name":"顺义区","pid":"110100","shortname":"顺义","level":"3","citycode":"10","zipcode":"101300","merger_name":"中国,北京,北京市,顺义区","lng":"116.65417","lat":"40.1302","pinyin":"Shunyi"},{"id":"110114","name":"昌平区","pid":"110100","shortname":"昌平","level":"3","citycode":"10","zipcode":"102200","merger_name":"中国,北京,北京市,昌平区","lng":"116.2312","lat":"40.22072","pinyin":"Changping"},{"id":"110115","name":"大兴区","pid":"110100","shortname":"大兴","level":"3","citycode":"10","zipcode":"102600","merger_name":"中国,北京,北京市,大兴区","lng":"116.34149","lat":"39.72668","pinyin":"Daxing"},{"id":"110116","name":"怀柔区","pid":"110100","shortname":"怀柔","level":"3","citycode":"10","zipcode":"101400","merger_name":"中国,北京,北京市,怀柔区","lng":"116.63168","lat":"40.31602","pinyin":"Huairou"},{"id":"110117","name":"平谷区","pid":"110100","shortname":"平谷","level":"3","citycode":"10","zipcode":"101200","merger_name":"中国,北京,北京市,平谷区","lng":"117.12133","lat":"40.14056","pinyin":"Pinggu"},{"id":"110228","name":"密云县","pid":"110100","shortname":"密云","level":"3","citycode":"10","zipcode":"101500","merger_name":"中国,北京,北京市,密云县","lng":"116.84295","lat":"40.37618","pinyin":"Miyun"},{"id":"110229","name":"延庆县","pid":"110100","shortname":"延庆","level":"3","citycode":"10","zipcode":"102100","merger_name":"中国,北京,北京市,延庆县","lng":"115.97494","lat":"40.45672","pinyin":"Yanqing"}]}]},{"id":"120000","name":"天津","pid":"100000","shortname":"天津","level":"1","citycode":"","zipcode":"","merger_name":"中国,天津","lng":"117.190182","lat":"39.125596","pinyin":"Tianjin","city":[{"id":"120100","name":"天津市","pid":"120000","shortname":"天津","level":"2","citycode":"22","zipcode":"300000","merger_name":"中国,天津,天津市","lng":"117.190182","lat":"39.125596","pinyin":"Tianjin","area":[{"id":"120101","name":"和平区","pid":"120100","shortname":"和平","level":"3","citycode":"22","zipcode":"300041","merger_name":"中国,天津,天津市,和平区","lng":"117.21456","lat":"39.11718","pinyin":"Heping"},{"id":"120102","name":"河东区","pid":"120100","shortname":"河东","level":"3","citycode":"22","zipcode":"300171","merger_name":"中国,天津,天津市,河东区","lng":"117.22562","lat":"39.12318","pinyin":"Hedong"},{"id":"120103","name":"河西区","pid":"120100","shortname":"河西","level":"3","citycode":"22","zipcode":"300202","merger_name":"中国,天津,天津市,河西区","lng":"117.22327","lat":"39.10959","pinyin":"Hexi"},{"id":"120104","name":"南开区","pid":"120100","shortname":"南开","level":"3","citycode":"22","zipcode":"300110","merger_name":"中国,天津,天津市,南开区","lng":"117.15074","lat":"39.13821","pinyin":"Nankai"},{"id":"120105","name":"河北区","pid":"120100","shortname":"河北","level":"3","citycode":"22","zipcode":"300143","merger_name":"中国,天津,天津市,河北区","lng":"117.19697","lat":"39.14816","pinyin":"Hebei"},{"id":"120106","name":"红桥区","pid":"120100","shortname":"红桥","level":"3","citycode":"22","zipcode":"300131","merger_name":"中国,天津,天津市,红桥区","lng":"117.15145","lat":"39.16715","pinyin":"Hongqiao"},{"id":"120110","name":"东丽区","pid":"120100","shortname":"东丽","level":"3","citycode":"22","zipcode":"300300","merger_name":"中国,天津,天津市,东丽区","lng":"117.31436","lat":"39.0863","pinyin":"Dongli"},{"id":"120111","name":"西青区","pid":"120100","shortname":"西青","level":"3","citycode":"22","zipcode":"300380","merger_name":"中国,天津,天津市,西青区","lng":"117.00927","lat":"39.14123","pinyin":"Xiqing"},{"id":"120112","name":"津南区","pid":"120100","shortname":"津南","level":"3","citycode":"22","zipcode":"300350","merger_name":"中国,天津,天津市,津南区","lng":"117.38537","lat":"38.99139","pinyin":"Jinnan"},{"id":"120113","name":"北辰区","pid":"120100","shortname":"北辰","level":"3","citycode":"22","zipcode":"300400","merger_name":"中国,天津,天津市,北辰区","lng":"117.13217","lat":"39.22131","pinyin":"Beichen"},{"id":"120114","name":"武清区","pid":"120100","shortname":"武清","level":"3","citycode":"22","zipcode":"301700","merger_name":"中国,天津,天津市,武清区","lng":"117.04443","lat":"39.38415","pinyin":"Wuqing"},{"id":"120115","name":"宝坻区","pid":"120100","shortname":"宝坻","level":"3","citycode":"22","zipcode":"301800","merger_name":"中国,天津,天津市,宝坻区","lng":"117.3103","lat":"39.71761","pinyin":"Baodi"},{"id":"120116","name":"滨海新区","pid":"120100","shortname":"滨海新区","level":"3","citycode":"22","zipcode":"300451","merger_name":"中国,天津,天津市,滨海新区","lng":"117.70162","lat":"39.02668","pinyin":"Binhaixinqu"},{"id":"120221","name":"宁河县","pid":"120100","shortname":"宁河","level":"3","citycode":"22","zipcode":"301500","merger_name":"中国,天津,天津市,宁河县","lng":"117.8255","lat":"39.33048","pinyin":"Ninghe"},{"id":"120223","name":"静海县","pid":"120100","shortname":"静海","level":"3","citycode":"22","zipcode":"301600","merger_name":"中国,天津,天津市,静海县","lng":"116.97436","lat":"38.94582","pinyin":"Jinghai"},{"id":"120225","name":"蓟县","pid":"120100","shortname":"蓟县","level":"3","citycode":"22","zipcode":"301900","merger_name":"中国,天津,天津市,蓟县","lng":"117.40799","lat":"40.04567","pinyin":"Jixian"}]}]},{"id":"130000","name":"河北省","pid":"100000","shortname":"河北","level":"1","citycode":"","zipcode":"","merger_name":"中国,河北省","lng":"114.502461","lat":"38.045474","pinyin":"Hebei","city":[{"id":"130100","name":"石家庄市","pid":"130000","shortname":"石家庄","level":"2","citycode":"311","zipcode":"50011","merger_name":"中国,河北省,石家庄市","lng":"114.502461","lat":"38.045474","pinyin":"Shijiazhuang","area":[{"id":"130102","name":"长安区","pid":"130100","shortname":"长安","level":"3","citycode":"311","zipcode":"50011","merger_name":"中国,河北省,石家庄市,长安区","lng":"114.53906","lat":"38.03665","pinyin":"Chang'an"},{"id":"130104","name":"桥西区","pid":"130100","shortname":"桥西","level":"3","citycode":"311","zipcode":"50091","merger_name":"中国,河北省,石家庄市,桥西区","lng":"114.46977","lat":"38.03221","pinyin":"Qiaoxi"},{"id":"130105","name":"新华区","pid":"130100","shortname":"新华","level":"3","citycode":"311","zipcode":"50051","merger_name":"中国,河北省,石家庄市,新华区","lng":"114.46326","lat":"38.05088","pinyin":"Xinhua"},{"id":"130107","name":"井陉矿区","pid":"130100","shortname":"井陉矿区","level":"3","citycode":"311","zipcode":"50100","merger_name":"中国,河北省,石家庄市,井陉矿区","lng":"114.06518","lat":"38.06705","pinyin":"Jingxingkuangqu"},{"id":"130108","name":"裕华区","pid":"130100","shortname":"裕华","level":"3","citycode":"311","zipcode":"50031","merger_name":"中国,河北省,石家庄市,裕华区","lng":"114.53115","lat":"38.00604","pinyin":"Yuhua"},{"id":"130109","name":"藁城区","pid":"130100","shortname":"藁城","level":"3","citycode":"311","zipcode":"52160","merger_name":"中国,河北省,石家庄市,藁城区","lng":"114.84671","lat":"38.02162","pinyin":"Gaocheng"},{"id":"130110","name":"鹿泉区","pid":"130100","shortname":"鹿泉","level":"3","citycode":"311","zipcode":"50200","merger_name":"中国,河北省,石家庄市,鹿泉区","lng":"114.31347","lat":"38.08782","pinyin":"Luquan"},{"id":"130111","name":"栾城区","pid":"130100","shortname":"栾城","level":"3","citycode":"311","zipcode":"51430","merger_name":"中国,河北省,石家庄市,栾城区","lng":"114.64834","lat":"37.90022","pinyin":"Luancheng"},{"id":"130121","name":"井陉县","pid":"130100","shortname":"井陉","level":"3","citycode":"311","zipcode":"50300","merger_name":"中国,河北省,石家庄市,井陉县","lng":"114.14257","lat":"38.03688","pinyin":"Jingxing"},{"id":"130123","name":"正定县","pid":"130100","shortname":"正定","level":"3","citycode":"311","zipcode":"50800","merger_name":"中国,河北省,石家庄市,正定县","lng":"114.57296","lat":"38.14445","pinyin":"Zhengding"},{"id":"130125","name":"行唐县","pid":"130100","shortname":"行唐","level":"3","citycode":"311","zipcode":"50600","merger_name":"中国,河北省,石家庄市,行唐县","lng":"114.55316","lat":"38.43654","pinyin":"Xingtang"},{"id":"130126","name":"灵寿县","pid":"130100","shortname":"灵寿","level":"3","citycode":"311","zipcode":"50500","merger_name":"中国,河北省,石家庄市,灵寿县","lng":"114.38259","lat":"38.30845","pinyin":"Lingshou"},{"id":"130127","name":"高邑县","pid":"130100","shortname":"高邑","level":"3","citycode":"311","zipcode":"51330","merger_name":"中国,河北省,石家庄市,高邑县","lng":"114.61142","lat":"37.61556","pinyin":"Gaoyi"},{"id":"130128","name":"深泽县","pid":"130100","shortname":"深泽","level":"3","citycode":"311","zipcode":"52560","merger_name":"中国,河北省,石家庄市,深泽县","lng":"115.20358","lat":"38.18353","pinyin":"Shenze"},{"id":"130129","name":"赞皇县","pid":"130100","shortname":"赞皇","level":"3","citycode":"311","zipcode":"51230","merger_name":"中国,河北省,石家庄市,赞皇县","lng":"114.38775","lat":"37.66135","pinyin":"Zanhuang"},{"id":"130130","name":"无极县","pid":"130100","shortname":"无极","level":"3","citycode":"311","zipcode":"52460","merger_name":"中国,河北省,石家庄市,无极县","lng":"114.97509","lat":"38.17653","pinyin":"Wuji"},{"id":"130131","name":"平山县","pid":"130100","shortname":"平山","level":"3","citycode":"311","zipcode":"50400","merger_name":"中国,河北省,石家庄市,平山县","lng":"114.186","lat":"38.25994","pinyin":"Pingshan"},{"id":"130132","name":"元氏县","pid":"130100","shortname":"元氏","level":"3","citycode":"311","zipcode":"51130","merger_name":"中国,河北省,石家庄市,元氏县","lng":"114.52539","lat":"37.76668","pinyin":"Yuanshi"},{"id":"130133","name":"赵县","pid":"130100","shortname":"赵县","level":"3","citycode":"311","zipcode":"51530","merger_name":"中国,河北省,石家庄市,赵县","lng":"114.77612","lat":"37.75628","pinyin":"Zhaoxian"},{"id":"130181","name":"辛集市","pid":"130100","shortname":"辛集","level":"3","citycode":"311","zipcode":"52360","merger_name":"中国,河北省,石家庄市,辛集市","lng":"115.20626","lat":"37.94079","pinyin":"Xinji"},{"id":"130183","name":"晋州市","pid":"130100","shortname":"晋州","level":"3","citycode":"311","zipcode":"52260","merger_name":"中国,河北省,石家庄市,晋州市","lng":"115.04348","lat":"38.03135","pinyin":"Jinzhou"},{"id":"130184","name":"新乐市","pid":"130100","shortname":"新乐","level":"3","citycode":"311","zipcode":"50700","merger_name":"中国,河北省,石家庄市,新乐市","lng":"114.68985","lat":"38.34417","pinyin":"Xinle"}]},{"id":"130200","name":"唐山市","pid":"130000","shortname":"唐山","level":"2","citycode":"315","zipcode":"63000","merger_name":"中国,河北省,唐山市","lng":"118.175393","lat":"39.635113","pinyin":"Tangshan","area":[{"id":"130202","name":"路南区","pid":"130200","shortname":"路南","level":"3","citycode":"315","zipcode":"63000","merger_name":"中国,河北省,唐山市,路南区","lng":"118.15431","lat":"39.62505","pinyin":"Lunan"},{"id":"130203","name":"路北区","pid":"130200","shortname":"路北","level":"3","citycode":"315","zipcode":"63000","merger_name":"中国,河北省,唐山市,路北区","lng":"118.20079","lat":"39.62436","pinyin":"Lubei"},{"id":"130204","name":"古冶区","pid":"130200","shortname":"古冶","level":"3","citycode":"315","zipcode":"63100","merger_name":"中国,河北省,唐山市,古冶区","lng":"118.45803","lat":"39.71993","pinyin":"Guye"},{"id":"130205","name":"开平区","pid":"130200","shortname":"开平","level":"3","citycode":"315","zipcode":"63021","merger_name":"中国,河北省,唐山市,开平区","lng":"118.26171","lat":"39.67128","pinyin":"Kaiping"},{"id":"130207","name":"丰南区","pid":"130200","shortname":"丰南","level":"3","citycode":"315","zipcode":"63300","merger_name":"中国,河北省,唐山市,丰南区","lng":"118.11282","lat":"39.56483","pinyin":"Fengnan"},{"id":"130208","name":"丰润区","pid":"130200","shortname":"丰润","level":"3","citycode":"315","zipcode":"64000","merger_name":"中国,河北省,唐山市,丰润区","lng":"118.12976","lat":"39.8244","pinyin":"Fengrun"},{"id":"130209","name":"曹妃甸区","pid":"130200","shortname":"曹妃甸","level":"3","citycode":"315","zipcode":"63200","merger_name":"中国,河北省,唐山市,曹妃甸区","lng":"118.460379","lat":"39.27307","pinyin":"Caofeidian"},{"id":"130223","name":"滦县","pid":"130200","shortname":"滦县","level":"3","citycode":"315","zipcode":"63700","merger_name":"中国,河北省,唐山市,滦县","lng":"118.70346","lat":"39.74056","pinyin":"Luanxian"},{"id":"130224","name":"滦南县","pid":"130200","shortname":"滦南","level":"3","citycode":"315","zipcode":"63500","merger_name":"中国,河北省,唐山市,滦南县","lng":"118.6741","lat":"39.5039","pinyin":"Luannan"},{"id":"130225","name":"乐亭县","pid":"130200","shortname":"乐亭","level":"3","citycode":"315","zipcode":"63600","merger_name":"中国,河北省,唐山市,乐亭县","lng":"118.9125","lat":"39.42561","pinyin":"Laoting"},{"id":"130227","name":"迁西县","pid":"130200","shortname":"迁西","level":"3","citycode":"315","zipcode":"64300","merger_name":"中国,河北省,唐山市,迁西县","lng":"118.31616","lat":"40.14587","pinyin":"Qianxi"},{"id":"130229","name":"玉田县","pid":"130200","shortname":"玉田","level":"3","citycode":"315","zipcode":"64100","merger_name":"中国,河北省,唐山市,玉田县","lng":"117.7388","lat":"39.90049","pinyin":"Yutian"},{"id":"130281","name":"遵化市","pid":"130200","shortname":"遵化","level":"3","citycode":"315","zipcode":"64200","merger_name":"中国,河北省,唐山市,遵化市","lng":"117.96444","lat":"40.18741","pinyin":"Zunhua"},{"id":"130283","name":"迁安市","pid":"130200","shortname":"迁安","level":"3","citycode":"315","zipcode":"64400","merger_name":"中国,河北省,唐山市,迁安市","lng":"118.70068","lat":"39.99833","pinyin":"Qian'an"}]},{"id":"130300","name":"秦皇岛市","pid":"130000","shortname":"秦皇岛","level":"2","citycode":"335","zipcode":"66000","merger_name":"中国,河北省,秦皇岛市","lng":"119.586579","lat":"39.942531","pinyin":"Qinhuangdao","area":[{"id":"130302","name":"海港区","pid":"130300","shortname":"海港","level":"3","citycode":"335","zipcode":"66000","merger_name":"中国,河北省,秦皇岛市,海港区","lng":"119.61046","lat":"39.9345","pinyin":"Haigang"},{"id":"130303","name":"山海关区","pid":"130300","shortname":"山海关","level":"3","citycode":"335","zipcode":"66200","merger_name":"中国,河北省,秦皇岛市,山海关区","lng":"119.77563","lat":"39.97869","pinyin":"Shanhaiguan"},{"id":"130304","name":"北戴河区","pid":"130300","shortname":"北戴河","level":"3","citycode":"335","zipcode":"66100","merger_name":"中国,河北省,秦皇岛市,北戴河区","lng":"119.48388","lat":"39.83408","pinyin":"Beidaihe"},{"id":"130321","name":"青龙满族自治县","pid":"130300","shortname":"青龙","level":"3","citycode":"335","zipcode":"66500","merger_name":"中国,河北省,秦皇岛市,青龙满族自治县","lng":"118.95242","lat":"40.40743","pinyin":"Qinglong"},{"id":"130322","name":"昌黎县","pid":"130300","shortname":"昌黎","level":"3","citycode":"335","zipcode":"66600","merger_name":"中国,河北省,秦皇岛市,昌黎县","lng":"119.16595","lat":"39.70884","pinyin":"Changli"},{"id":"130323","name":"抚宁县","pid":"130300","shortname":"抚宁","level":"3","citycode":"335","zipcode":"66300","merger_name":"中国,河北省,秦皇岛市,抚宁县","lng":"119.24487","lat":"39.87538","pinyin":"Funing"},{"id":"130324","name":"卢龙县","pid":"130300","shortname":"卢龙","level":"3","citycode":"335","zipcode":"66400","merger_name":"中国,河北省,秦皇岛市,卢龙县","lng":"118.89288","lat":"39.89176","pinyin":"Lulong"}]},{"id":"130400","name":"邯郸市","pid":"130000","shortname":"邯郸","level":"2","citycode":"310","zipcode":"56002","merger_name":"中国,河北省,邯郸市","lng":"114.490686","lat":"36.612273","pinyin":"Handan","area":[{"id":"130402","name":"邯山区","pid":"130400","shortname":"邯山","level":"3","citycode":"310","zipcode":"56001","merger_name":"中国,河北省,邯郸市,邯山区","lng":"114.48375","lat":"36.60006","pinyin":"Hanshan"},{"id":"130403","name":"丛台区","pid":"130400","shortname":"丛台","level":"3","citycode":"310","zipcode":"56002","merger_name":"中国,河北省,邯郸市,丛台区","lng":"114.49343","lat":"36.61847","pinyin":"Congtai"},{"id":"130404","name":"复兴区","pid":"130400","shortname":"复兴","level":"3","citycode":"310","zipcode":"56003","merger_name":"中国,河北省,邯郸市,复兴区","lng":"114.45928","lat":"36.61134","pinyin":"Fuxing"},{"id":"130406","name":"峰峰矿区","pid":"130400","shortname":"峰峰矿区","level":"3","citycode":"310","zipcode":"56200","merger_name":"中国,河北省,邯郸市,峰峰矿区","lng":"114.21148","lat":"36.41937","pinyin":"Fengfengkuangqu"},{"id":"130421","name":"邯郸县","pid":"130400","shortname":"邯郸","level":"3","citycode":"310","zipcode":"56101","merger_name":"中国,河北省,邯郸市,邯郸县","lng":"114.53103","lat":"36.59385","pinyin":"Handan"},{"id":"130423","name":"临漳县","pid":"130400","shortname":"临漳","level":"3","citycode":"310","zipcode":"56600","merger_name":"中国,河北省,邯郸市,临漳县","lng":"114.6195","lat":"36.33461","pinyin":"Linzhang"},{"id":"130424","name":"成安县","pid":"130400","shortname":"成安","level":"3","citycode":"310","zipcode":"56700","merger_name":"中国,河北省,邯郸市,成安县","lng":"114.66995","lat":"36.44411","pinyin":"Cheng'an"},{"id":"130425","name":"大名县","pid":"130400","shortname":"大名","level":"3","citycode":"310","zipcode":"56900","merger_name":"中国,河北省,邯郸市,大名县","lng":"115.15362","lat":"36.27994","pinyin":"Daming"},{"id":"130426","name":"涉县","pid":"130400","shortname":"涉县","level":"3","citycode":"310","zipcode":"56400","merger_name":"中国,河北省,邯郸市,涉县","lng":"113.69183","lat":"36.58072","pinyin":"Shexian"},{"id":"130427","name":"磁县","pid":"130400","shortname":"磁县","level":"3","citycode":"310","zipcode":"56500","merger_name":"中国,河北省,邯郸市,磁县","lng":"114.37387","lat":"36.37392","pinyin":"Cixian"},{"id":"130428","name":"肥乡县","pid":"130400","shortname":"肥乡","level":"3","citycode":"310","zipcode":"57550","merger_name":"中国,河北省,邯郸市,肥乡县","lng":"114.79998","lat":"36.54807","pinyin":"Feixiang"},{"id":"130429","name":"永年县","pid":"130400","shortname":"永年","level":"3","citycode":"310","zipcode":"57150","merger_name":"中国,河北省,邯郸市,永年县","lng":"114.48925","lat":"36.78356","pinyin":"Yongnian"},{"id":"130430","name":"邱县","pid":"130400","shortname":"邱县","level":"3","citycode":"310","zipcode":"57450","merger_name":"中国,河北省,邯郸市,邱县","lng":"115.17407","lat":"36.82082","pinyin":"Qiuxian"},{"id":"130431","name":"鸡泽县","pid":"130400","shortname":"鸡泽","level":"3","citycode":"310","zipcode":"57350","merger_name":"中国,河北省,邯郸市,鸡泽县","lng":"114.8742","lat":"36.92374","pinyin":"Jize"},{"id":"130432","name":"广平县","pid":"130400","shortname":"广平","level":"3","citycode":"310","zipcode":"57650","merger_name":"中国,河北省,邯郸市,广平县","lng":"114.94653","lat":"36.48046","pinyin":"Guangping"},{"id":"130433","name":"馆陶县","pid":"130400","shortname":"馆陶","level":"3","citycode":"310","zipcode":"57750","merger_name":"中国,河北省,邯郸市,馆陶县","lng":"115.29913","lat":"36.53719","pinyin":"Guantao"},{"id":"130434","name":"魏县","pid":"130400","shortname":"魏县","level":"3","citycode":"310","zipcode":"56800","merger_name":"中国,河北省,邯郸市,魏县","lng":"114.93518","lat":"36.36171","pinyin":"Weixian"},{"id":"130435","name":"曲周县","pid":"130400","shortname":"曲周","level":"3","citycode":"310","zipcode":"57250","merger_name":"中国,河北省,邯郸市,曲周县","lng":"114.95196","lat":"36.77671","pinyin":"Quzhou"},{"id":"130481","name":"武安市","pid":"130400","shortname":"武安","level":"3","citycode":"310","zipcode":"56300","merger_name":"中国,河北省,邯郸市,武安市","lng":"114.20153","lat":"36.69281","pinyin":"Wu'an"}]},{"id":"130500","name":"邢台市","pid":"130000","shortname":"邢台","level":"2","citycode":"319","zipcode":"54001","merger_name":"中国,河北省,邢台市","lng":"114.508851","lat":"37.0682","pinyin":"Xingtai","area":[{"id":"130502","name":"桥东区","pid":"130500","shortname":"桥东","level":"3","citycode":"319","zipcode":"54001","merger_name":"中国,河北省,邢台市,桥东区","lng":"114.50725","lat":"37.06801","pinyin":"Qiaodong"},{"id":"130503","name":"桥西区","pid":"130500","shortname":"桥西","level":"3","citycode":"319","zipcode":"54000","merger_name":"中国,河北省,邢台市,桥西区","lng":"114.46803","lat":"37.05984","pinyin":"Qiaoxi"},{"id":"130521","name":"邢台县","pid":"130500","shortname":"邢台","level":"3","citycode":"319","zipcode":"54001","merger_name":"中国,河北省,邢台市,邢台县","lng":"114.56575","lat":"37.0456","pinyin":"Xingtai"},{"id":"130522","name":"临城县","pid":"130500","shortname":"临城","level":"3","citycode":"319","zipcode":"54300","merger_name":"中国,河北省,邢台市,临城县","lng":"114.50387","lat":"37.43977","pinyin":"Lincheng"},{"id":"130523","name":"内丘县","pid":"130500","shortname":"内丘","level":"3","citycode":"319","zipcode":"54200","merger_name":"中国,河北省,邢台市,内丘县","lng":"114.51212","lat":"37.28671","pinyin":"Neiqiu"},{"id":"130524","name":"柏乡县","pid":"130500","shortname":"柏乡","level":"3","citycode":"319","zipcode":"55450","merger_name":"中国,河北省,邢台市,柏乡县","lng":"114.69332","lat":"37.48242","pinyin":"Baixiang"},{"id":"130525","name":"隆尧县","pid":"130500","shortname":"隆尧","level":"3","citycode":"319","zipcode":"55350","merger_name":"中国,河北省,邢台市,隆尧县","lng":"114.77615","lat":"37.35351","pinyin":"Longyao"},{"id":"130526","name":"任县","pid":"130500","shortname":"任县","level":"3","citycode":"319","zipcode":"55150","merger_name":"中国,河北省,邢台市,任县","lng":"114.6842","lat":"37.12575","pinyin":"Renxian"},{"id":"130527","name":"南和县","pid":"130500","shortname":"南和","level":"3","citycode":"319","zipcode":"54400","merger_name":"中国,河北省,邢台市,南和县","lng":"114.68371","lat":"37.00488","pinyin":"Nanhe"},{"id":"130528","name":"宁晋县","pid":"130500","shortname":"宁晋","level":"3","citycode":"319","zipcode":"55550","merger_name":"中国,河北省,邢台市,宁晋县","lng":"114.92117","lat":"37.61696","pinyin":"Ningjin"},{"id":"130529","name":"巨鹿县","pid":"130500","shortname":"巨鹿","level":"3","citycode":"319","zipcode":"55250","merger_name":"中国,河北省,邢台市,巨鹿县","lng":"115.03524","lat":"37.21801","pinyin":"Julu"},{"id":"130530","name":"新河县","pid":"130500","shortname":"新河","level":"3","citycode":"319","zipcode":"55650","merger_name":"中国,河北省,邢台市,新河县","lng":"115.24987","lat":"37.52718","pinyin":"Xinhe"},{"id":"130531","name":"广宗县","pid":"130500","shortname":"广宗","level":"3","citycode":"319","zipcode":"54600","merger_name":"中国,河北省,邢台市,广宗县","lng":"115.14254","lat":"37.0746","pinyin":"Guangzong"},{"id":"130532","name":"平乡县","pid":"130500","shortname":"平乡","level":"3","citycode":"319","zipcode":"54500","merger_name":"中国,河北省,邢台市,平乡县","lng":"115.03002","lat":"37.06317","pinyin":"Pingxiang"},{"id":"130533","name":"威县","pid":"130500","shortname":"威县","level":"3","citycode":"319","zipcode":"54700","merger_name":"中国,河北省,邢台市,威县","lng":"115.2637","lat":"36.9768","pinyin":"Weixian"},{"id":"130534","name":"清河县","pid":"130500","shortname":"清河","level":"3","citycode":"319","zipcode":"54800","merger_name":"中国,河北省,邢台市,清河县","lng":"115.66479","lat":"37.07122","pinyin":"Qinghe"},{"id":"130535","name":"临西县","pid":"130500","shortname":"临西","level":"3","citycode":"319","zipcode":"54900","merger_name":"中国,河北省,邢台市,临西县","lng":"115.50097","lat":"36.87078","pinyin":"Linxi"},{"id":"130581","name":"南宫市","pid":"130500","shortname":"南宫","level":"3","citycode":"319","zipcode":"55750","merger_name":"中国,河北省,邢台市,南宫市","lng":"115.39068","lat":"37.35799","pinyin":"Nangong"},{"id":"130582","name":"沙河市","pid":"130500","shortname":"沙河","level":"3","citycode":"319","zipcode":"54100","merger_name":"中国,河北省,邢台市,沙河市","lng":"114.4981","lat":"36.8577","pinyin":"Shahe"}]},{"id":"130600","name":"保定市","pid":"130000","shortname":"保定","level":"2","citycode":"312","zipcode":"71052","merger_name":"中国,河北省,保定市","lng":"115.482331","lat":"38.867657","pinyin":"Baoding","area":[{"id":"130602","name":"新市区","pid":"130600","shortname":"新市","level":"3","citycode":"312","zipcode":"71051","merger_name":"中国,河北省,保定市,新市区","lng":"115.4587","lat":"38.87751","pinyin":"Xinshi"},{"id":"130603","name":"北市区","pid":"130600","shortname":"北市","level":"3","citycode":"312","zipcode":"71000","merger_name":"中国,河北省,保定市,北市区","lng":"115.49715","lat":"38.88322","pinyin":"Beishi"},{"id":"130604","name":"南市区","pid":"130600","shortname":"南市","level":"3","citycode":"312","zipcode":"71001","merger_name":"中国,河北省,保定市,南市区","lng":"115.52859","lat":"38.85455","pinyin":"Nanshi"},{"id":"130621","name":"满城县","pid":"130600","shortname":"满城","level":"3","citycode":"312","zipcode":"72150","merger_name":"中国,河北省,保定市,满城县","lng":"115.32296","lat":"38.94972","pinyin":"Mancheng"},{"id":"130622","name":"清苑县","pid":"130600","shortname":"清苑","level":"3","citycode":"312","zipcode":"71100","merger_name":"中国,河北省,保定市,清苑县","lng":"115.49267","lat":"38.76709","pinyin":"Qingyuan"},{"id":"130623","name":"涞水县","pid":"130600","shortname":"涞水","level":"3","citycode":"312","zipcode":"74100","merger_name":"中国,河北省,保定市,涞水县","lng":"115.71517","lat":"39.39404","pinyin":"Laishui"},{"id":"130624","name":"阜平县","pid":"130600","shortname":"阜平","level":"3","citycode":"312","zipcode":"73200","merger_name":"中国,河北省,保定市,阜平县","lng":"114.19683","lat":"38.84763","pinyin":"Fuping"},{"id":"130625","name":"徐水县","pid":"130600","shortname":"徐水","level":"3","citycode":"312","zipcode":"72550","merger_name":"中国,河北省,保定市,徐水县","lng":"115.65829","lat":"39.02099","pinyin":"Xushui"},{"id":"130626","name":"定兴县","pid":"130600","shortname":"定兴","level":"3","citycode":"312","zipcode":"72650","merger_name":"中国,河北省,保定市,定兴县","lng":"115.80786","lat":"39.26312","pinyin":"Dingxing"},{"id":"130627","name":"唐县","pid":"130600","shortname":"唐县","level":"3","citycode":"312","zipcode":"72350","merger_name":"中国,河北省,保定市,唐县","lng":"114.98516","lat":"38.74513","pinyin":"Tangxian"},{"id":"130628","name":"高阳县","pid":"130600","shortname":"高阳","level":"3","citycode":"312","zipcode":"71500","merger_name":"中国,河北省,保定市,高阳县","lng":"115.7788","lat":"38.70003","pinyin":"Gaoyang"},{"id":"130629","name":"容城县","pid":"130600","shortname":"容城","level":"3","citycode":"312","zipcode":"71700","merger_name":"中国,河北省,保定市,容城县","lng":"115.87158","lat":"39.0535","pinyin":"Rongcheng"},{"id":"130630","name":"涞源县","pid":"130600","shortname":"涞源","level":"3","citycode":"312","zipcode":"74300","merger_name":"中国,河北省,保定市,涞源县","lng":"114.69128","lat":"39.35388","pinyin":"Laiyuan"},{"id":"130631","name":"望都县","pid":"130600","shortname":"望都","level":"3","citycode":"312","zipcode":"72450","merger_name":"中国,河北省,保定市,望都县","lng":"115.1567","lat":"38.70996","pinyin":"Wangdu"},{"id":"130632","name":"安新县","pid":"130600","shortname":"安新","level":"3","citycode":"312","zipcode":"71600","merger_name":"中国,河北省,保定市,安新县","lng":"115.93557","lat":"38.93532","pinyin":"Anxin"},{"id":"130633","name":"易县","pid":"130600","shortname":"易县","level":"3","citycode":"312","zipcode":"74200","merger_name":"中国,河北省,保定市,易县","lng":"115.4981","lat":"39.34885","pinyin":"Yixian"},{"id":"130634","name":"曲阳县","pid":"130600","shortname":"曲阳","level":"3","citycode":"312","zipcode":"73100","merger_name":"中国,河北省,保定市,曲阳县","lng":"114.70123","lat":"38.62154","pinyin":"Quyang"},{"id":"130635","name":"蠡县","pid":"130600","shortname":"蠡县","level":"3","citycode":"312","zipcode":"71400","merger_name":"中国,河北省,保定市,蠡县","lng":"115.57717","lat":"38.48974","pinyin":"Lixian"},{"id":"130636","name":"顺平县","pid":"130600","shortname":"顺平","level":"3","citycode":"312","zipcode":"72250","merger_name":"中国,河北省,保定市,顺平县","lng":"115.1347","lat":"38.83854","pinyin":"Shunping"},{"id":"130637","name":"博野县","pid":"130600","shortname":"博野","level":"3","citycode":"312","zipcode":"71300","merger_name":"中国,河北省,保定市,博野县","lng":"115.47033","lat":"38.4564","pinyin":"Boye"},{"id":"130638","name":"雄县","pid":"130600","shortname":"雄县","level":"3","citycode":"312","zipcode":"71800","merger_name":"中国,河北省,保定市,雄县","lng":"116.10873","lat":"38.99442","pinyin":"Xiongxian"},{"id":"130681","name":"涿州市","pid":"130600","shortname":"涿州","level":"3","citycode":"312","zipcode":"72750","merger_name":"中国,河北省,保定市,涿州市","lng":"115.98062","lat":"39.48622","pinyin":"Zhuozhou"},{"id":"130682","name":"定州市","pid":"130600","shortname":"定州","level":"3","citycode":"312","zipcode":"73000","merger_name":"中国,河北省,保定市,定州市","lng":"114.9902","lat":"38.51623","pinyin":"Dingzhou"},{"id":"130683","name":"安国市","pid":"130600","shortname":"安国","level":"3","citycode":"312","zipcode":"71200","merger_name":"中国,河北省,保定市,安国市","lng":"115.32321","lat":"38.41391","pinyin":"Anguo"},{"id":"130684","name":"高碑店市","pid":"130600","shortname":"高碑店","level":"3","citycode":"312","zipcode":"74000","merger_name":"中国,河北省,保定市,高碑店市","lng":"115.87368","lat":"39.32655","pinyin":"Gaobeidian"}]},{"id":"130700","name":"张家口市","pid":"130000","shortname":"张家口","level":"2","citycode":"313","zipcode":"75000","merger_name":"中国,河北省,张家口市","lng":"114.884091","lat":"40.811901","pinyin":"Zhangjiakou","area":[{"id":"130702","name":"桥东区","pid":"130700","shortname":"桥东","level":"3","citycode":"313","zipcode":"75000","merger_name":"中国,河北省,张家口市,桥东区","lng":"114.8943","lat":"40.78844","pinyin":"Qiaodong"},{"id":"130703","name":"桥西区","pid":"130700","shortname":"桥西","level":"3","citycode":"313","zipcode":"75061","merger_name":"中国,河北省,张家口市,桥西区","lng":"114.86962","lat":"40.81945","pinyin":"Qiaoxi"},{"id":"130705","name":"宣化区","pid":"130700","shortname":"宣化","level":"3","citycode":"313","zipcode":"75100","merger_name":"中国,河北省,张家口市,宣化区","lng":"115.06543","lat":"40.60957","pinyin":"Xuanhua"},{"id":"130706","name":"下花园区","pid":"130700","shortname":"下花园","level":"3","citycode":"313","zipcode":"75300","merger_name":"中国,河北省,张家口市,下花园区","lng":"115.28744","lat":"40.50236","pinyin":"Xiahuayuan"},{"id":"130721","name":"宣化县","pid":"130700","shortname":"宣化","level":"3","citycode":"313","zipcode":"75100","merger_name":"中国,河北省,张家口市,宣化县","lng":"115.15497","lat":"40.56618","pinyin":"Xuanhua"},{"id":"130722","name":"张北县","pid":"130700","shortname":"张北","level":"3","citycode":"313","zipcode":"76450","merger_name":"中国,河北省,张家口市,张北县","lng":"114.71432","lat":"41.15977","pinyin":"Zhangbei"},{"id":"130723","name":"康保县","pid":"130700","shortname":"康保","level":"3","citycode":"313","zipcode":"76650","merger_name":"中国,河北省,张家口市,康保县","lng":"114.60031","lat":"41.85225","pinyin":"Kangbao"},{"id":"130724","name":"沽源县","pid":"130700","shortname":"沽源","level":"3","citycode":"313","zipcode":"76550","merger_name":"中国,河北省,张家口市,沽源县","lng":"115.68859","lat":"41.66959","pinyin":"Guyuan"},{"id":"130725","name":"尚义县","pid":"130700","shortname":"尚义","level":"3","citycode":"313","zipcode":"76750","merger_name":"中国,河北省,张家口市,尚义县","lng":"113.97134","lat":"41.07782","pinyin":"Shangyi"},{"id":"130726","name":"蔚县","pid":"130700","shortname":"蔚县","level":"3","citycode":"313","zipcode":"75700","merger_name":"中国,河北省,张家口市,蔚县","lng":"114.58892","lat":"39.84067","pinyin":"Yuxian"},{"id":"130727","name":"阳原县","pid":"130700","shortname":"阳原","level":"3","citycode":"313","zipcode":"75800","merger_name":"中国,河北省,张家口市,阳原县","lng":"114.15051","lat":"40.10361","pinyin":"Yangyuan"},{"id":"130728","name":"怀安县","pid":"130700","shortname":"怀安","level":"3","citycode":"313","zipcode":"76150","merger_name":"中国,河北省,张家口市,怀安县","lng":"114.38559","lat":"40.67425","pinyin":"Huai'an"},{"id":"130729","name":"万全县","pid":"130700","shortname":"万全","level":"3","citycode":"313","zipcode":"76250","merger_name":"中国,河北省,张家口市,万全县","lng":"114.7405","lat":"40.76694","pinyin":"Wanquan"},{"id":"130730","name":"怀来县","pid":"130700","shortname":"怀来","level":"3","citycode":"313","zipcode":"75400","merger_name":"中国,河北省,张家口市,怀来县","lng":"115.51773","lat":"40.41536","pinyin":"Huailai"},{"id":"130731","name":"涿鹿县","pid":"130700","shortname":"涿鹿","level":"3","citycode":"313","zipcode":"75600","merger_name":"中国,河北省,张家口市,涿鹿县","lng":"115.22403","lat":"40.37636","pinyin":"Zhuolu"},{"id":"130732","name":"赤城县","pid":"130700","shortname":"赤城","level":"3","citycode":"313","zipcode":"75500","merger_name":"中国,河北省,张家口市,赤城县","lng":"115.83187","lat":"40.91438","pinyin":"Chicheng"},{"id":"130733","name":"崇礼县","pid":"130700","shortname":"崇礼","level":"3","citycode":"313","zipcode":"76350","merger_name":"中国,河北省,张家口市,崇礼县","lng":"115.27993","lat":"40.97519","pinyin":"Chongli"}]},{"id":"130800","name":"承德市","pid":"130000","shortname":"承德","level":"2","citycode":"314","zipcode":"67000","merger_name":"中国,河北省,承德市","lng":"117.939152","lat":"40.976204","pinyin":"Chengde","area":[{"id":"130802","name":"双桥区","pid":"130800","shortname":"双桥","level":"3","citycode":"314","zipcode":"67000","merger_name":"中国,河北省,承德市,双桥区","lng":"117.9432","lat":"40.97466","pinyin":"Shuangqiao"},{"id":"130803","name":"双滦区","pid":"130800","shortname":"双滦","level":"3","citycode":"314","zipcode":"67001","merger_name":"中国,河北省,承德市,双滦区","lng":"117.74487","lat":"40.95375","pinyin":"Shuangluan"},{"id":"130804","name":"鹰手营子矿区","pid":"130800","shortname":"鹰手营子矿区","level":"3","citycode":"314","zipcode":"67200","merger_name":"中国,河北省,承德市,鹰手营子矿区","lng":"117.65985","lat":"40.54744","pinyin":"Yingshouyingzikuangqu"},{"id":"130821","name":"承德县","pid":"130800","shortname":"承德","level":"3","citycode":"314","zipcode":"67400","merger_name":"中国,河北省,承德市,承德县","lng":"118.17639","lat":"40.76985","pinyin":"Chengde"},{"id":"130822","name":"兴隆县","pid":"130800","shortname":"兴隆","level":"3","citycode":"314","zipcode":"67300","merger_name":"中国,河北省,承德市,兴隆县","lng":"117.50073","lat":"40.41709","pinyin":"Xinglong"},{"id":"130823","name":"平泉县","pid":"130800","shortname":"平泉","level":"3","citycode":"314","zipcode":"67500","merger_name":"中国,河北省,承德市,平泉县","lng":"118.70196","lat":"41.01839","pinyin":"Pingquan"},{"id":"130824","name":"滦平县","pid":"130800","shortname":"滦平","level":"3","citycode":"314","zipcode":"68250","merger_name":"中国,河北省,承德市,滦平县","lng":"117.33276","lat":"40.94148","pinyin":"Luanping"},{"id":"130825","name":"隆化县","pid":"130800","shortname":"隆化","level":"3","citycode":"314","zipcode":"68150","merger_name":"中国,河北省,承德市,隆化县","lng":"117.7297","lat":"41.31412","pinyin":"Longhua"},{"id":"130826","name":"丰宁满族自治县","pid":"130800","shortname":"丰宁","level":"3","citycode":"314","zipcode":"68350","merger_name":"中国,河北省,承德市,丰宁满族自治县","lng":"116.6492","lat":"41.20481","pinyin":"Fengning"},{"id":"130827","name":"宽城满族自治县","pid":"130800","shortname":"宽城","level":"3","citycode":"314","zipcode":"67600","merger_name":"中国,河北省,承德市,宽城满族自治县","lng":"118.49176","lat":"40.60829","pinyin":"Kuancheng"},{"id":"130828","name":"围场满族蒙古族自治县","pid":"130800","shortname":"围场","level":"3","citycode":"314","zipcode":"68450","merger_name":"中国,河北省,承德市,围场满族蒙古族自治县","lng":"117.7601","lat":"41.94368","pinyin":"Weichang"}]},{"id":"130900","name":"沧州市","pid":"130000","shortname":"沧州","level":"2","citycode":"317","zipcode":"61001","merger_name":"中国,河北省,沧州市","lng":"116.857461","lat":"38.310582","pinyin":"Cangzhou","area":[{"id":"130902","name":"新华区","pid":"130900","shortname":"新华","level":"3","citycode":"317","zipcode":"61000","merger_name":"中国,河北省,沧州市,新华区","lng":"116.86643","lat":"38.31438","pinyin":"Xinhua"},{"id":"130903","name":"运河区","pid":"130900","shortname":"运河","level":"3","citycode":"317","zipcode":"61001","merger_name":"中国,河北省,沧州市,运河区","lng":"116.85706","lat":"38.31352","pinyin":"Yunhe"},{"id":"130921","name":"沧县","pid":"130900","shortname":"沧县","level":"3","citycode":"317","zipcode":"61000","merger_name":"中国,河北省,沧州市,沧县","lng":"116.87817","lat":"38.29361","pinyin":"Cangxian"},{"id":"130922","name":"青县","pid":"130900","shortname":"青县","level":"3","citycode":"317","zipcode":"62650","merger_name":"中国,河北省,沧州市,青县","lng":"116.80316","lat":"38.58345","pinyin":"Qingxian"},{"id":"130923","name":"东光县","pid":"130900","shortname":"东光","level":"3","citycode":"317","zipcode":"61600","merger_name":"中国,河北省,沧州市,东光县","lng":"116.53668","lat":"37.8857","pinyin":"Dongguang"},{"id":"130924","name":"海兴县","pid":"130900","shortname":"海兴","level":"3","citycode":"317","zipcode":"61200","merger_name":"中国,河北省,沧州市,海兴县","lng":"117.49758","lat":"38.13958","pinyin":"Haixing"},{"id":"130925","name":"盐山县","pid":"130900","shortname":"盐山","level":"3","citycode":"317","zipcode":"61300","merger_name":"中国,河北省,沧州市,盐山县","lng":"117.23092","lat":"38.05647","pinyin":"Yanshan"},{"id":"130926","name":"肃宁县","pid":"130900","shortname":"肃宁","level":"3","citycode":"317","zipcode":"62350","merger_name":"中国,河北省,沧州市,肃宁县","lng":"115.82971","lat":"38.42272","pinyin":"Suning"},{"id":"130927","name":"南皮县","pid":"130900","shortname":"南皮","level":"3","citycode":"317","zipcode":"61500","merger_name":"中国,河北省,沧州市,南皮县","lng":"116.70224","lat":"38.04109","pinyin":"Nanpi"},{"id":"130928","name":"吴桥县","pid":"130900","shortname":"吴桥","level":"3","citycode":"317","zipcode":"61800","merger_name":"中国,河北省,沧州市,吴桥县","lng":"116.3847","lat":"37.62546","pinyin":"Wuqiao"},{"id":"130929","name":"献县","pid":"130900","shortname":"献县","level":"3","citycode":"317","zipcode":"62250","merger_name":"中国,河北省,沧州市,献县","lng":"116.12695","lat":"38.19228","pinyin":"Xianxian"},{"id":"130930","name":"孟村回族自治县","pid":"130900","shortname":"孟村","level":"3","citycode":"317","zipcode":"61400","merger_name":"中国,河北省,沧州市,孟村回族自治县","lng":"117.10412","lat":"38.05338","pinyin":"Mengcun"},{"id":"130981","name":"泊头市","pid":"130900","shortname":"泊头","level":"3","citycode":"317","zipcode":"62150","merger_name":"中国,河北省,沧州市,泊头市","lng":"116.57824","lat":"38.08359","pinyin":"Botou"},{"id":"130982","name":"任丘市","pid":"130900","shortname":"任丘","level":"3","citycode":"317","zipcode":"62550","merger_name":"中国,河北省,沧州市,任丘市","lng":"116.1033","lat":"38.71124","pinyin":"Renqiu"},{"id":"130983","name":"黄骅市","pid":"130900","shortname":"黄骅","level":"3","citycode":"317","zipcode":"61100","merger_name":"中国,河北省,沧州市,黄骅市","lng":"117.33883","lat":"38.3706","pinyin":"Huanghua"},{"id":"130984","name":"河间市","pid":"130900","shortname":"河间","level":"3","citycode":"317","zipcode":"62450","merger_name":"中国,河北省,沧州市,河间市","lng":"116.0993","lat":"38.44549","pinyin":"Hejian"}]},{"id":"131000","name":"廊坊市","pid":"130000","shortname":"廊坊","level":"2","citycode":"316","zipcode":"65000","merger_name":"中国,河北省,廊坊市","lng":"116.713873","lat":"39.529244","pinyin":"Langfang","area":[{"id":"131002","name":"安次区","pid":"131000","shortname":"安次","level":"3","citycode":"316","zipcode":"65000","merger_name":"中国,河北省,廊坊市,安次区","lng":"116.70308","lat":"39.52057","pinyin":"Anci"},{"id":"131003","name":"广阳区","pid":"131000","shortname":"广阳","level":"3","citycode":"316","zipcode":"65000","merger_name":"中国,河北省,廊坊市,广阳区","lng":"116.71069","lat":"39.52278","pinyin":"Guangyang"},{"id":"131022","name":"固安县","pid":"131000","shortname":"固安","level":"3","citycode":"316","zipcode":"65500","merger_name":"中国,河北省,廊坊市,固安县","lng":"116.29916","lat":"39.43833","pinyin":"Gu'an"},{"id":"131023","name":"永清县","pid":"131000","shortname":"永清","level":"3","citycode":"316","zipcode":"65600","merger_name":"中国,河北省,廊坊市,永清县","lng":"116.50091","lat":"39.32069","pinyin":"Yongqing"},{"id":"131024","name":"香河县","pid":"131000","shortname":"香河","level":"3","citycode":"316","zipcode":"65400","merger_name":"中国,河北省,廊坊市,香河县","lng":"117.00634","lat":"39.76133","pinyin":"Xianghe"},{"id":"131025","name":"大城县","pid":"131000","shortname":"大城","level":"3","citycode":"316","zipcode":"65900","merger_name":"中国,河北省,廊坊市,大城县","lng":"116.65353","lat":"38.70534","pinyin":"Daicheng"},{"id":"131026","name":"文安县","pid":"131000","shortname":"文安","level":"3","citycode":"316","zipcode":"65800","merger_name":"中国,河北省,廊坊市,文安县","lng":"116.45846","lat":"38.87325","pinyin":"Wen'an"},{"id":"131028","name":"大厂回族自治县","pid":"131000","shortname":"大厂","level":"3","citycode":"316","zipcode":"65300","merger_name":"中国,河北省,廊坊市,大厂回族自治县","lng":"116.98916","lat":"39.88649","pinyin":"Dachang"},{"id":"131081","name":"霸州市","pid":"131000","shortname":"霸州","level":"3","citycode":"316","zipcode":"65700","merger_name":"中国,河北省,廊坊市,霸州市","lng":"116.39154","lat":"39.12569","pinyin":"Bazhou"},{"id":"131082","name":"三河市","pid":"131000","shortname":"三河","level":"3","citycode":"316","zipcode":"65200","merger_name":"中国,河北省,廊坊市,三河市","lng":"117.07229","lat":"39.98358","pinyin":"Sanhe"}]},{"id":"131100","name":"衡水市","pid":"130000","shortname":"衡水","level":"2","citycode":"318","zipcode":"53000","merger_name":"中国,河北省,衡水市","lng":"115.665993","lat":"37.735097","pinyin":"Hengshui","area":[{"id":"131102","name":"桃城区","pid":"131100","shortname":"桃城","level":"3","citycode":"318","zipcode":"53000","merger_name":"中国,河北省,衡水市,桃城区","lng":"115.67529","lat":"37.73499","pinyin":"Taocheng"},{"id":"131121","name":"枣强县","pid":"131100","shortname":"枣强","level":"3","citycode":"318","zipcode":"53100","merger_name":"中国,河北省,衡水市,枣强县","lng":"115.72576","lat":"37.51027","pinyin":"Zaoqiang"},{"id":"131122","name":"武邑县","pid":"131100","shortname":"武邑","level":"3","citycode":"318","zipcode":"53400","merger_name":"中国,河北省,衡水市,武邑县","lng":"115.88748","lat":"37.80181","pinyin":"Wuyi"},{"id":"131123","name":"武强县","pid":"131100","shortname":"武强","level":"3","citycode":"318","zipcode":"53300","merger_name":"中国,河北省,衡水市,武强县","lng":"115.98226","lat":"38.04138","pinyin":"Wuqiang"},{"id":"131124","name":"饶阳县","pid":"131100","shortname":"饶阳","level":"3","citycode":"318","zipcode":"53900","merger_name":"中国,河北省,衡水市,饶阳县","lng":"115.72558","lat":"38.23529","pinyin":"Raoyang"},{"id":"131125","name":"安平县","pid":"131100","shortname":"安平","level":"3","citycode":"318","zipcode":"53600","merger_name":"中国,河北省,衡水市,安平县","lng":"115.51876","lat":"38.23388","pinyin":"Anping"},{"id":"131126","name":"故城县","pid":"131100","shortname":"故城","level":"3","citycode":"318","zipcode":"53800","merger_name":"中国,河北省,衡水市,故城县","lng":"115.97076","lat":"37.34773","pinyin":"Gucheng"},{"id":"131127","name":"景县","pid":"131100","shortname":"景县","level":"3","citycode":"318","zipcode":"53500","merger_name":"中国,河北省,衡水市,景县","lng":"116.26904","lat":"37.6926","pinyin":"Jingxian"},{"id":"131128","name":"阜城县","pid":"131100","shortname":"阜城","level":"3","citycode":"318","zipcode":"53700","merger_name":"中国,河北省,衡水市,阜城县","lng":"116.14431","lat":"37.86881","pinyin":"Fucheng"},{"id":"131181","name":"冀州市","pid":"131100","shortname":"冀州","level":"3","citycode":"318","zipcode":"53200","merger_name":"中国,河北省,衡水市,冀州市","lng":"115.57934","lat":"37.55082","pinyin":"Jizhou"},{"id":"131182","name":"深州市","pid":"131100","shortname":"深州","level":"3","citycode":"318","zipcode":"53800","merger_name":"中国,河北省,衡水市,深州市","lng":"115.55993","lat":"38.00109","pinyin":"Shenzhou"}]}]},{"id":"140000","name":"山西省","pid":"100000","shortname":"山西","level":"1","citycode":"","zipcode":"","merger_name":"中国,山西省","lng":"112.549248","lat":"37.857014","pinyin":"Shanxi","city":[{"id":"140100","name":"太原市","pid":"140000","shortname":"太原","level":"2","citycode":"351","zipcode":"30082","merger_name":"中国,山西省,太原市","lng":"112.549248","lat":"37.857014","pinyin":"Taiyuan","area":[{"id":"140105","name":"小店区","pid":"140100","shortname":"小店","level":"3","citycode":"351","zipcode":"30032","merger_name":"中国,山西省,太原市,小店区","lng":"112.56878","lat":"37.73565","pinyin":"Xiaodian"},{"id":"140106","name":"迎泽区","pid":"140100","shortname":"迎泽","level":"3","citycode":"351","zipcode":"30002","merger_name":"中国,山西省,太原市,迎泽区","lng":"112.56338","lat":"37.86326","pinyin":"Yingze"},{"id":"140107","name":"杏花岭区","pid":"140100","shortname":"杏花岭","level":"3","citycode":"351","zipcode":"30009","merger_name":"中国,山西省,太原市,杏花岭区","lng":"112.56237","lat":"37.88429","pinyin":"Xinghualing"},{"id":"140108","name":"尖草坪区","pid":"140100","shortname":"尖草坪","level":"3","citycode":"351","zipcode":"30023","merger_name":"中国,山西省,太原市,尖草坪区","lng":"112.48709","lat":"37.94193","pinyin":"Jiancaoping"},{"id":"140109","name":"万柏林区","pid":"140100","shortname":"万柏林","level":"3","citycode":"351","zipcode":"30024","merger_name":"中国,山西省,太原市,万柏林区","lng":"112.51553","lat":"37.85923","pinyin":"Wanbailin"},{"id":"140110","name":"晋源区","pid":"140100","shortname":"晋源","level":"3","citycode":"351","zipcode":"30025","merger_name":"中国,山西省,太原市,晋源区","lng":"112.47985","lat":"37.72479","pinyin":"Jinyuan"},{"id":"140121","name":"清徐县","pid":"140100","shortname":"清徐","level":"3","citycode":"351","zipcode":"30400","merger_name":"中国,山西省,太原市,清徐县","lng":"112.35888","lat":"37.60758","pinyin":"Qingxu"},{"id":"140122","name":"阳曲县","pid":"140100","shortname":"阳曲","level":"3","citycode":"351","zipcode":"30100","merger_name":"中国,山西省,太原市,阳曲县","lng":"112.67861","lat":"38.05989","pinyin":"Yangqu"},{"id":"140123","name":"娄烦县","pid":"140100","shortname":"娄烦","level":"3","citycode":"351","zipcode":"30300","merger_name":"中国,山西省,太原市,娄烦县","lng":"111.79473","lat":"38.06689","pinyin":"Loufan"},{"id":"140181","name":"古交市","pid":"140100","shortname":"古交","level":"3","citycode":"351","zipcode":"30200","merger_name":"中国,山西省,太原市,古交市","lng":"112.16918","lat":"37.90983","pinyin":"Gujiao"}]},{"id":"140200","name":"大同市","pid":"140000","shortname":"大同","level":"2","citycode":"352","zipcode":"37008","merger_name":"中国,山西省,大同市","lng":"113.295259","lat":"40.09031","pinyin":"Datong","area":[{"id":"140202","name":"城区","pid":"140200","shortname":"城区","level":"3","citycode":"352","zipcode":"37008","merger_name":"中国,山西省,大同市,城区","lng":"113.298","lat":"40.07566","pinyin":"Chengqu"},{"id":"140203","name":"矿区","pid":"140200","shortname":"矿区","level":"3","citycode":"352","zipcode":"37003","merger_name":"中国,山西省,大同市,矿区","lng":"113.1772","lat":"40.03685","pinyin":"Kuangqu"},{"id":"140211","name":"南郊区","pid":"140200","shortname":"南郊","level":"3","citycode":"352","zipcode":"37001","merger_name":"中国,山西省,大同市,南郊区","lng":"113.14947","lat":"40.00539","pinyin":"Nanjiao"},{"id":"140212","name":"新荣区","pid":"140200","shortname":"新荣","level":"3","citycode":"352","zipcode":"37002","merger_name":"中国,山西省,大同市,新荣区","lng":"113.13504","lat":"40.25618","pinyin":"Xinrong"},{"id":"140221","name":"阳高县","pid":"140200","shortname":"阳高","level":"3","citycode":"352","zipcode":"38100","merger_name":"中国,山西省,大同市,阳高县","lng":"113.75012","lat":"40.36256","pinyin":"Yanggao"},{"id":"140222","name":"天镇县","pid":"140200","shortname":"天镇","level":"3","citycode":"352","zipcode":"38200","merger_name":"中国,山西省,大同市,天镇县","lng":"114.0931","lat":"40.42299","pinyin":"Tianzhen"},{"id":"140223","name":"广灵县","pid":"140200","shortname":"广灵","level":"3","citycode":"352","zipcode":"37500","merger_name":"中国,山西省,大同市,广灵县","lng":"114.28204","lat":"39.76082","pinyin":"Guangling"},{"id":"140224","name":"灵丘县","pid":"140200","shortname":"灵丘","level":"3","citycode":"352","zipcode":"34400","merger_name":"中国,山西省,大同市,灵丘县","lng":"114.23672","lat":"39.44043","pinyin":"Lingqiu"},{"id":"140225","name":"浑源县","pid":"140200","shortname":"浑源","level":"3","citycode":"352","zipcode":"37400","merger_name":"中国,山西省,大同市,浑源县","lng":"113.69552","lat":"39.69962","pinyin":"Hunyuan"},{"id":"140226","name":"左云县","pid":"140200","shortname":"左云","level":"3","citycode":"352","zipcode":"37100","merger_name":"中国,山西省,大同市,左云县","lng":"112.70266","lat":"40.01336","pinyin":"Zuoyun"},{"id":"140227","name":"大同县","pid":"140200","shortname":"大同","level":"3","citycode":"352","zipcode":"37300","merger_name":"中国,山西省,大同市,大同县","lng":"113.61212","lat":"40.04012","pinyin":"Datong"}]},{"id":"140300","name":"阳泉市","pid":"140000","shortname":"阳泉","level":"2","citycode":"353","zipcode":"45000","merger_name":"中国,山西省,阳泉市","lng":"113.583285","lat":"37.861188","pinyin":"Yangquan","area":[{"id":"140302","name":"城区","pid":"140300","shortname":"城区","level":"3","citycode":"353","zipcode":"45000","merger_name":"中国,山西省,阳泉市,城区","lng":"113.60069","lat":"37.8474","pinyin":"Chengqu"},{"id":"140303","name":"矿区","pid":"140300","shortname":"矿区","level":"3","citycode":"353","zipcode":"45000","merger_name":"中国,山西省,阳泉市,矿区","lng":"113.55677","lat":"37.86895","pinyin":"Kuangqu"},{"id":"140311","name":"郊区","pid":"140300","shortname":"郊区","level":"3","citycode":"353","zipcode":"45011","merger_name":"中国,山西省,阳泉市,郊区","lng":"113.58539","lat":"37.94139","pinyin":"Jiaoqu"},{"id":"140321","name":"平定县","pid":"140300","shortname":"平定","level":"3","citycode":"353","zipcode":"45200","merger_name":"中国,山西省,阳泉市,平定县","lng":"113.65789","lat":"37.78601","pinyin":"Pingding"},{"id":"140322","name":"盂县","pid":"140300","shortname":"盂县","level":"3","citycode":"353","zipcode":"45100","merger_name":"中国,山西省,阳泉市,盂县","lng":"113.41235","lat":"38.08579","pinyin":"Yuxian"}]},{"id":"140400","name":"长治市","pid":"140000","shortname":"长治","level":"2","citycode":"355","zipcode":"46000","merger_name":"中国,山西省,长治市","lng":"113.113556","lat":"36.191112","pinyin":"Changzhi","area":[{"id":"140402","name":"城区","pid":"140400","shortname":"城区","level":"3","citycode":"355","zipcode":"46011","merger_name":"中国,山西省,长治市,城区","lng":"113.12308","lat":"36.20351","pinyin":"Chengqu"},{"id":"140411","name":"郊区","pid":"140400","shortname":"郊区","level":"3","citycode":"355","zipcode":"46011","merger_name":"中国,山西省,长治市,郊区","lng":"113.12653","lat":"36.19918","pinyin":"Jiaoqu"},{"id":"140421","name":"长治县","pid":"140400","shortname":"长治","level":"3","citycode":"355","zipcode":"47100","merger_name":"中国,山西省,长治市,长治县","lng":"113.04791","lat":"36.04722","pinyin":"Changzhi"},{"id":"140423","name":"襄垣县","pid":"140400","shortname":"襄垣","level":"3","citycode":"355","zipcode":"46200","merger_name":"中国,山西省,长治市,襄垣县","lng":"113.05157","lat":"36.53527","pinyin":"Xiangyuan"},{"id":"140424","name":"屯留县","pid":"140400","shortname":"屯留","level":"3","citycode":"355","zipcode":"46100","merger_name":"中国,山西省,长治市,屯留县","lng":"112.89196","lat":"36.31579","pinyin":"Tunliu"},{"id":"140425","name":"平顺县","pid":"140400","shortname":"平顺","level":"3","citycode":"355","zipcode":"47400","merger_name":"中国,山西省,长治市,平顺县","lng":"113.43603","lat":"36.20005","pinyin":"Pingshun"},{"id":"140426","name":"黎城县","pid":"140400","shortname":"黎城","level":"3","citycode":"355","zipcode":"47600","merger_name":"中国,山西省,长治市,黎城县","lng":"113.38766","lat":"36.50301","pinyin":"Licheng"},{"id":"140427","name":"壶关县","pid":"140400","shortname":"壶关","level":"3","citycode":"355","zipcode":"47300","merger_name":"中国,山西省,长治市,壶关县","lng":"113.207","lat":"36.11301","pinyin":"Huguan"},{"id":"140428","name":"长子县","pid":"140400","shortname":"长子","level":"3","citycode":"355","zipcode":"46600","merger_name":"中国,山西省,长治市,长子县","lng":"112.87731","lat":"36.12125","pinyin":"Zhangzi"},{"id":"140429","name":"武乡县","pid":"140400","shortname":"武乡","level":"3","citycode":"355","zipcode":"46300","merger_name":"中国,山西省,长治市,武乡县","lng":"112.86343","lat":"36.83687","pinyin":"Wuxiang"},{"id":"140430","name":"沁县","pid":"140400","shortname":"沁县","level":"3","citycode":"355","zipcode":"46400","merger_name":"中国,山西省,长治市,沁县","lng":"112.69863","lat":"36.75628","pinyin":"Qinxian"},{"id":"140431","name":"沁源县","pid":"140400","shortname":"沁源","level":"3","citycode":"355","zipcode":"46500","merger_name":"中国,山西省,长治市,沁源县","lng":"112.33758","lat":"36.50008","pinyin":"Qinyuan"},{"id":"140481","name":"潞城市","pid":"140400","shortname":"潞城","level":"3","citycode":"355","zipcode":"47500","merger_name":"中国,山西省,长治市,潞城市","lng":"113.22888","lat":"36.33414","pinyin":"Lucheng"}]},{"id":"140500","name":"晋城市","pid":"140000","shortname":"晋城","level":"2","citycode":"356","zipcode":"48000","merger_name":"中国,山西省,晋城市","lng":"112.851274","lat":"35.497553","pinyin":"Jincheng","area":[{"id":"140502","name":"城区","pid":"140500","shortname":"城区","level":"3","citycode":"356","zipcode":"48000","merger_name":"中国,山西省,晋城市,城区","lng":"112.85319","lat":"35.50175","pinyin":"Chengqu"},{"id":"140521","name":"沁水县","pid":"140500","shortname":"沁水","level":"3","citycode":"356","zipcode":"48200","merger_name":"中国,山西省,晋城市,沁水县","lng":"112.1871","lat":"35.69102","pinyin":"Qinshui"},{"id":"140522","name":"阳城县","pid":"140500","shortname":"阳城","level":"3","citycode":"356","zipcode":"48100","merger_name":"中国,山西省,晋城市,阳城县","lng":"112.41485","lat":"35.48614","pinyin":"Yangcheng"},{"id":"140524","name":"陵川县","pid":"140500","shortname":"陵川","level":"3","citycode":"356","zipcode":"48300","merger_name":"中国,山西省,晋城市,陵川县","lng":"113.2806","lat":"35.77532","pinyin":"Lingchuan"},{"id":"140525","name":"泽州县","pid":"140500","shortname":"泽州","level":"3","citycode":"356","zipcode":"48012","merger_name":"中国,山西省,晋城市,泽州县","lng":"112.83947","lat":"35.50789","pinyin":"Zezhou"},{"id":"140581","name":"高平市","pid":"140500","shortname":"高平","level":"3","citycode":"356","zipcode":"48400","merger_name":"中国,山西省,晋城市,高平市","lng":"112.92288","lat":"35.79705","pinyin":"Gaoping"}]},{"id":"140600","name":"朔州市","pid":"140000","shortname":"朔州","level":"2","citycode":"349","zipcode":"38500","merger_name":"中国,山西省,朔州市","lng":"112.433387","lat":"39.331261","pinyin":"Shuozhou","area":[{"id":"140602","name":"朔城区","pid":"140600","shortname":"朔城","level":"3","citycode":"349","zipcode":"36000","merger_name":"中国,山西省,朔州市,朔城区","lng":"112.43189","lat":"39.31982","pinyin":"Shuocheng"},{"id":"140603","name":"平鲁区","pid":"140600","shortname":"平鲁","level":"3","citycode":"349","zipcode":"38600","merger_name":"中国,山西省,朔州市,平鲁区","lng":"112.28833","lat":"39.51155","pinyin":"Pinglu"},{"id":"140621","name":"山阴县","pid":"140600","shortname":"山阴","level":"3","citycode":"349","zipcode":"36900","merger_name":"中国,山西省,朔州市,山阴县","lng":"112.81662","lat":"39.52697","pinyin":"Shanyin"},{"id":"140622","name":"应县","pid":"140600","shortname":"应县","level":"3","citycode":"349","zipcode":"37600","merger_name":"中国,山西省,朔州市,应县","lng":"113.19052","lat":"39.55279","pinyin":"Yingxian"},{"id":"140623","name":"右玉县","pid":"140600","shortname":"右玉","level":"3","citycode":"349","zipcode":"37200","merger_name":"中国,山西省,朔州市,右玉县","lng":"112.46902","lat":"39.99011","pinyin":"Youyu"},{"id":"140624","name":"怀仁县","pid":"140600","shortname":"怀仁","level":"3","citycode":"349","zipcode":"38300","merger_name":"中国,山西省,朔州市,怀仁县","lng":"113.10009","lat":"39.82806","pinyin":"Huairen"}]},{"id":"140700","name":"晋中市","pid":"140000","shortname":"晋中","level":"2","citycode":"354","zipcode":"30600","merger_name":"中国,山西省,晋中市","lng":"112.736465","lat":"37.696495","pinyin":"Jinzhong","area":[{"id":"140702","name":"榆次区","pid":"140700","shortname":"榆次","level":"3","citycode":"354","zipcode":"30600","merger_name":"中国,山西省,晋中市,榆次区","lng":"112.70788","lat":"37.6978","pinyin":"Yuci"},{"id":"140721","name":"榆社县","pid":"140700","shortname":"榆社","level":"3","citycode":"354","zipcode":"31800","merger_name":"中国,山西省,晋中市,榆社县","lng":"112.97558","lat":"37.0721","pinyin":"Yushe"},{"id":"140722","name":"左权县","pid":"140700","shortname":"左权","level":"3","citycode":"354","zipcode":"32600","merger_name":"中国,山西省,晋中市,左权县","lng":"113.37918","lat":"37.08235","pinyin":"Zuoquan"},{"id":"140723","name":"和顺县","pid":"140700","shortname":"和顺","level":"3","citycode":"354","zipcode":"32700","merger_name":"中国,山西省,晋中市,和顺县","lng":"113.56988","lat":"37.32963","pinyin":"Heshun"},{"id":"140724","name":"昔阳县","pid":"140700","shortname":"昔阳","level":"3","citycode":"354","zipcode":"45300","merger_name":"中国,山西省,晋中市,昔阳县","lng":"113.70517","lat":"37.61863","pinyin":"Xiyang"},{"id":"140725","name":"寿阳县","pid":"140700","shortname":"寿阳","level":"3","citycode":"354","zipcode":"45400","merger_name":"中国,山西省,晋中市,寿阳县","lng":"113.17495","lat":"37.88899","pinyin":"Shouyang"},{"id":"140726","name":"太谷县","pid":"140700","shortname":"太谷","level":"3","citycode":"354","zipcode":"30800","merger_name":"中国,山西省,晋中市,太谷县","lng":"112.55246","lat":"37.42161","pinyin":"Taigu"},{"id":"140727","name":"祁县","pid":"140700","shortname":"祁县","level":"3","citycode":"354","zipcode":"30900","merger_name":"中国,山西省,晋中市,祁县","lng":"112.33358","lat":"37.3579","pinyin":"Qixian"},{"id":"140728","name":"平遥县","pid":"140700","shortname":"平遥","level":"3","citycode":"354","zipcode":"31100","merger_name":"中国,山西省,晋中市,平遥县","lng":"112.17553","lat":"37.1892","pinyin":"Pingyao"},{"id":"140729","name":"灵石县","pid":"140700","shortname":"灵石","level":"3","citycode":"354","zipcode":"31300","merger_name":"中国,山西省,晋中市,灵石县","lng":"111.7774","lat":"36.84814","pinyin":"Lingshi"},{"id":"140781","name":"介休市","pid":"140700","shortname":"介休","level":"3","citycode":"354","zipcode":"32000","merger_name":"中国,山西省,晋中市,介休市","lng":"111.91824","lat":"37.02771","pinyin":"Jiexiu"}]},{"id":"140800","name":"运城市","pid":"140000","shortname":"运城","level":"2","citycode":"359","zipcode":"44000","merger_name":"中国,山西省,运城市","lng":"111.003957","lat":"35.022778","pinyin":"Yuncheng","area":[{"id":"140802","name":"盐湖区","pid":"140800","shortname":"盐湖","level":"3","citycode":"359","zipcode":"44000","merger_name":"中国,山西省,运城市,盐湖区","lng":"110.99827","lat":"35.0151","pinyin":"Yanhu"},{"id":"140821","name":"临猗县","pid":"140800","shortname":"临猗","level":"3","citycode":"359","zipcode":"44100","merger_name":"中国,山西省,运城市,临猗县","lng":"110.77432","lat":"35.14455","pinyin":"Linyi"},{"id":"140822","name":"万荣县","pid":"140800","shortname":"万荣","level":"3","citycode":"359","zipcode":"44200","merger_name":"中国,山西省,运城市,万荣县","lng":"110.83657","lat":"35.41556","pinyin":"Wanrong"},{"id":"140823","name":"闻喜县","pid":"140800","shortname":"闻喜","level":"3","citycode":"359","zipcode":"43800","merger_name":"中国,山西省,运城市,闻喜县","lng":"111.22265","lat":"35.35553","pinyin":"Wenxi"},{"id":"140824","name":"稷山县","pid":"140800","shortname":"稷山","level":"3","citycode":"359","zipcode":"43200","merger_name":"中国,山西省,运城市,稷山县","lng":"110.97924","lat":"35.59993","pinyin":"Jishan"},{"id":"140825","name":"新绛县","pid":"140800","shortname":"新绛","level":"3","citycode":"359","zipcode":"43100","merger_name":"中国,山西省,运城市,新绛县","lng":"111.22509","lat":"35.61566","pinyin":"Xinjiang"},{"id":"140826","name":"绛县","pid":"140800","shortname":"绛县","level":"3","citycode":"359","zipcode":"43600","merger_name":"中国,山西省,运城市,绛县","lng":"111.56668","lat":"35.49096","pinyin":"Jiangxian"},{"id":"140827","name":"垣曲县","pid":"140800","shortname":"垣曲","level":"3","citycode":"359","zipcode":"43700","merger_name":"中国,山西省,运城市,垣曲县","lng":"111.67166","lat":"35.29923","pinyin":"Yuanqu"},{"id":"140828","name":"夏县","pid":"140800","shortname":"夏县","level":"3","citycode":"359","zipcode":"44400","merger_name":"中国,山西省,运城市,夏县","lng":"111.21966","lat":"35.14121","pinyin":"Xiaxian"},{"id":"140829","name":"平陆县","pid":"140800","shortname":"平陆","level":"3","citycode":"359","zipcode":"44300","merger_name":"中国,山西省,运城市,平陆县","lng":"111.21704","lat":"34.83772","pinyin":"Pinglu"},{"id":"140830","name":"芮城县","pid":"140800","shortname":"芮城","level":"3","citycode":"359","zipcode":"44600","merger_name":"中国,山西省,运城市,芮城县","lng":"110.69455","lat":"34.69384","pinyin":"Ruicheng"},{"id":"140881","name":"永济市","pid":"140800","shortname":"永济","level":"3","citycode":"359","zipcode":"44500","merger_name":"中国,山西省,运城市,永济市","lng":"110.44537","lat":"34.86556","pinyin":"Yongji"},{"id":"140882","name":"河津市","pid":"140800","shortname":"河津","level":"3","citycode":"359","zipcode":"43300","merger_name":"中国,山西省,运城市,河津市","lng":"110.7116","lat":"35.59478","pinyin":"Hejin"}]},{"id":"140900","name":"忻州市","pid":"140000","shortname":"忻州","level":"2","citycode":"350","zipcode":"34000","merger_name":"中国,山西省,忻州市","lng":"112.733538","lat":"38.41769","pinyin":"Xinzhou","area":[{"id":"140902","name":"忻府区","pid":"140900","shortname":"忻府","level":"3","citycode":"350","zipcode":"34000","merger_name":"中国,山西省,忻州市,忻府区","lng":"112.74603","lat":"38.40414","pinyin":"Xinfu"},{"id":"140921","name":"定襄县","pid":"140900","shortname":"定襄","level":"3","citycode":"350","zipcode":"35400","merger_name":"中国,山西省,忻州市,定襄县","lng":"112.95733","lat":"38.47387","pinyin":"Dingxiang"},{"id":"140922","name":"五台县","pid":"140900","shortname":"五台","level":"3","citycode":"350","zipcode":"35500","merger_name":"中国,山西省,忻州市,五台县","lng":"113.25256","lat":"38.72774","pinyin":"Wutai"},{"id":"140923","name":"代县","pid":"140900","shortname":"代县","level":"3","citycode":"350","zipcode":"34200","merger_name":"中国,山西省,忻州市,代县","lng":"112.95913","lat":"39.06717","pinyin":"Daixian"},{"id":"140924","name":"繁峙县","pid":"140900","shortname":"繁峙","level":"3","citycode":"350","zipcode":"34300","merger_name":"中国,山西省,忻州市,繁峙县","lng":"113.26303","lat":"39.18886","pinyin":"Fanshi"},{"id":"140925","name":"宁武县","pid":"140900","shortname":"宁武","level":"3","citycode":"350","zipcode":"36700","merger_name":"中国,山西省,忻州市,宁武县","lng":"112.30423","lat":"39.00211","pinyin":"Ningwu"},{"id":"140926","name":"静乐县","pid":"140900","shortname":"静乐","level":"3","citycode":"350","zipcode":"35100","merger_name":"中国,山西省,忻州市,静乐县","lng":"111.94158","lat":"38.3602","pinyin":"Jingle"},{"id":"140927","name":"神池县","pid":"140900","shortname":"神池","level":"3","citycode":"350","zipcode":"36100","merger_name":"中国,山西省,忻州市,神池县","lng":"112.20541","lat":"39.09","pinyin":"Shenchi"},{"id":"140928","name":"五寨县","pid":"140900","shortname":"五寨","level":"3","citycode":"350","zipcode":"36200","merger_name":"中国,山西省,忻州市,五寨县","lng":"111.8489","lat":"38.90757","pinyin":"Wuzhai"},{"id":"140929","name":"岢岚县","pid":"140900","shortname":"岢岚","level":"3","citycode":"350","zipcode":"36300","merger_name":"中国,山西省,忻州市,岢岚县","lng":"111.57388","lat":"38.70452","pinyin":"Kelan"},{"id":"140930","name":"河曲县","pid":"140900","shortname":"河曲","level":"3","citycode":"350","zipcode":"36500","merger_name":"中国,山西省,忻州市,河曲县","lng":"111.13821","lat":"39.38439","pinyin":"Hequ"},{"id":"140931","name":"保德县","pid":"140900","shortname":"保德","level":"3","citycode":"350","zipcode":"36600","merger_name":"中国,山西省,忻州市,保德县","lng":"111.08656","lat":"39.02248","pinyin":"Baode"},{"id":"140932","name":"偏关县","pid":"140900","shortname":"偏关","level":"3","citycode":"350","zipcode":"36400","merger_name":"中国,山西省,忻州市,偏关县","lng":"111.50863","lat":"39.43609","pinyin":"Pianguan"},{"id":"140981","name":"原平市","pid":"140900","shortname":"原平","level":"3","citycode":"350","zipcode":"34100","merger_name":"中国,山西省,忻州市,原平市","lng":"112.70584","lat":"38.73181","pinyin":"Yuanping"}]},{"id":"141000","name":"临汾市","pid":"140000","shortname":"临汾","level":"2","citycode":"357","zipcode":"41000","merger_name":"中国,山西省,临汾市","lng":"111.517973","lat":"36.08415","pinyin":"Linfen","area":[{"id":"141002","name":"尧都区","pid":"141000","shortname":"尧都","level":"3","citycode":"357","zipcode":"41000","merger_name":"中国,山西省,临汾市,尧都区","lng":"111.5787","lat":"36.08298","pinyin":"Yaodu"},{"id":"141021","name":"曲沃县","pid":"141000","shortname":"曲沃","level":"3","citycode":"357","zipcode":"43400","merger_name":"中国,山西省,临汾市,曲沃县","lng":"111.47525","lat":"35.64119","pinyin":"Quwo"},{"id":"141022","name":"翼城县","pid":"141000","shortname":"翼城","level":"3","citycode":"357","zipcode":"43500","merger_name":"中国,山西省,临汾市,翼城县","lng":"111.7181","lat":"35.73881","pinyin":"Yicheng"},{"id":"141023","name":"襄汾县","pid":"141000","shortname":"襄汾","level":"3","citycode":"357","zipcode":"41500","merger_name":"中国,山西省,临汾市,襄汾县","lng":"111.44204","lat":"35.87711","pinyin":"Xiangfen"},{"id":"141024","name":"洪洞县","pid":"141000","shortname":"洪洞","level":"3","citycode":"357","zipcode":"41600","merger_name":"中国,山西省,临汾市,洪洞县","lng":"111.67501","lat":"36.25425","pinyin":"Hongtong"},{"id":"141025","name":"古县","pid":"141000","shortname":"古县","level":"3","citycode":"357","zipcode":"42400","merger_name":"中国,山西省,临汾市,古县","lng":"111.92041","lat":"36.26688","pinyin":"Guxian"},{"id":"141026","name":"安泽县","pid":"141000","shortname":"安泽","level":"3","citycode":"357","zipcode":"42500","merger_name":"中国,山西省,临汾市,安泽县","lng":"112.24981","lat":"36.14803","pinyin":"Anze"},{"id":"141027","name":"浮山县","pid":"141000","shortname":"浮山","level":"3","citycode":"357","zipcode":"42600","merger_name":"中国,山西省,临汾市,浮山县","lng":"111.84744","lat":"35.96854","pinyin":"Fushan"},{"id":"141028","name":"吉县","pid":"141000","shortname":"吉县","level":"3","citycode":"357","zipcode":"42200","merger_name":"中国,山西省,临汾市,吉县","lng":"110.68148","lat":"36.09873","pinyin":"Jixian"},{"id":"141029","name":"乡宁县","pid":"141000","shortname":"乡宁","level":"3","citycode":"357","zipcode":"42100","merger_name":"中国,山西省,临汾市,乡宁县","lng":"110.84652","lat":"35.97072","pinyin":"Xiangning"},{"id":"141030","name":"大宁县","pid":"141000","shortname":"大宁","level":"3","citycode":"357","zipcode":"42300","merger_name":"中国,山西省,临汾市,大宁县","lng":"110.75216","lat":"36.46624","pinyin":"Daning"},{"id":"141031","name":"隰县","pid":"141000","shortname":"隰县","level":"3","citycode":"357","zipcode":"41300","merger_name":"中国,山西省,临汾市,隰县","lng":"110.93881","lat":"36.69258","pinyin":"Xixian"},{"id":"141032","name":"永和县","pid":"141000","shortname":"永和","level":"3","citycode":"357","zipcode":"41400","merger_name":"中国,山西省,临汾市,永和县","lng":"110.63168","lat":"36.7584","pinyin":"Yonghe"},{"id":"141033","name":"蒲县","pid":"141000","shortname":"蒲县","level":"3","citycode":"357","zipcode":"41200","merger_name":"中国,山西省,临汾市,蒲县","lng":"111.09674","lat":"36.41243","pinyin":"Puxian"},{"id":"141034","name":"汾西县","pid":"141000","shortname":"汾西","level":"3","citycode":"357","zipcode":"31500","merger_name":"中国,山西省,临汾市,汾西县","lng":"111.56811","lat":"36.65063","pinyin":"Fenxi"},{"id":"141081","name":"侯马市","pid":"141000","shortname":"侯马","level":"3","citycode":"357","zipcode":"43000","merger_name":"中国,山西省,临汾市,侯马市","lng":"111.37207","lat":"35.61903","pinyin":"Houma"},{"id":"141082","name":"霍州市","pid":"141000","shortname":"霍州","level":"3","citycode":"357","zipcode":"31400","merger_name":"中国,山西省,临汾市,霍州市","lng":"111.755","lat":"36.5638","pinyin":"Huozhou"}]},{"id":"141100","name":"吕梁市","pid":"140000","shortname":"吕梁","level":"2","citycode":"358","zipcode":"33000","merger_name":"中国,山西省,吕梁市","lng":"111.134335","lat":"37.524366","pinyin":"Lvliang","area":[{"id":"141102","name":"离石区","pid":"141100","shortname":"离石","level":"3","citycode":"358","zipcode":"33000","merger_name":"中国,山西省,吕梁市,离石区","lng":"111.15059","lat":"37.5177","pinyin":"Lishi"},{"id":"141121","name":"文水县","pid":"141100","shortname":"文水","level":"3","citycode":"358","zipcode":"32100","merger_name":"中国,山西省,吕梁市,文水县","lng":"112.02829","lat":"37.43841","pinyin":"Wenshui"},{"id":"141122","name":"交城县","pid":"141100","shortname":"交城","level":"3","citycode":"358","zipcode":"30500","merger_name":"中国,山西省,吕梁市,交城县","lng":"112.1585","lat":"37.5512","pinyin":"Jiaocheng"},{"id":"141123","name":"兴县","pid":"141100","shortname":"兴县","level":"3","citycode":"358","zipcode":"33600","merger_name":"中国,山西省,吕梁市,兴县","lng":"111.12692","lat":"38.46321","pinyin":"Xingxian"},{"id":"141124","name":"临县","pid":"141100","shortname":"临县","level":"3","citycode":"358","zipcode":"33200","merger_name":"中国,山西省,吕梁市,临县","lng":"110.99282","lat":"37.95271","pinyin":"Linxian"},{"id":"141125","name":"柳林县","pid":"141100","shortname":"柳林","level":"3","citycode":"358","zipcode":"33300","merger_name":"中国,山西省,吕梁市,柳林县","lng":"110.88922","lat":"37.42932","pinyin":"Liulin"},{"id":"141126","name":"石楼县","pid":"141100","shortname":"石楼","level":"3","citycode":"358","zipcode":"32500","merger_name":"中国,山西省,吕梁市,石楼县","lng":"110.8352","lat":"36.99731","pinyin":"Shilou"},{"id":"141127","name":"岚县","pid":"141100","shortname":"岚县","level":"3","citycode":"358","zipcode":"33500","merger_name":"中国,山西省,吕梁市,岚县","lng":"111.67627","lat":"38.27874","pinyin":"Lanxian"},{"id":"141128","name":"方山县","pid":"141100","shortname":"方山","level":"3","citycode":"358","zipcode":"33100","merger_name":"中国,山西省,吕梁市,方山县","lng":"111.24011","lat":"37.88979","pinyin":"Fangshan"},{"id":"141129","name":"中阳县","pid":"141100","shortname":"中阳","level":"3","citycode":"358","zipcode":"33400","merger_name":"中国,山西省,吕梁市,中阳县","lng":"111.1795","lat":"37.35715","pinyin":"Zhongyang"},{"id":"141130","name":"交口县","pid":"141100","shortname":"交口","level":"3","citycode":"358","zipcode":"32400","merger_name":"中国,山西省,吕梁市,交口县","lng":"111.18103","lat":"36.98213","pinyin":"Jiaokou"},{"id":"141181","name":"孝义市","pid":"141100","shortname":"孝义","level":"3","citycode":"358","zipcode":"32300","merger_name":"中国,山西省,吕梁市,孝义市","lng":"111.77362","lat":"37.14414","pinyin":"Xiaoyi"},{"id":"141182","name":"汾阳市","pid":"141100","shortname":"汾阳","level":"3","citycode":"358","zipcode":"32200","merger_name":"中国,山西省,吕梁市,汾阳市","lng":"111.7882","lat":"37.26605","pinyin":"Fenyang"}]}]},{"id":"150000","name":"内蒙古自治区","pid":"100000","shortname":"内蒙古","level":"1","citycode":"","zipcode":"","merger_name":"中国,内蒙古自治区","lng":"111.670801","lat":"40.818311","pinyin":"Inner Mongolia","city":[{"id":"150100","name":"呼和浩特市","pid":"150000","shortname":"呼和浩特","level":"2","citycode":"471","zipcode":"10000","merger_name":"中国,内蒙古自治区,呼和浩特市","lng":"111.670801","lat":"40.818311","pinyin":"Hohhot","area":[{"id":"150102","name":"新城区","pid":"150100","shortname":"新城","level":"3","citycode":"471","zipcode":"10050","merger_name":"中国,内蒙古自治区,呼和浩特市,新城区","lng":"111.66554","lat":"40.85828","pinyin":"Xincheng"},{"id":"150103","name":"回民区","pid":"150100","shortname":"回民","level":"3","citycode":"471","zipcode":"10030","merger_name":"中国,内蒙古自治区,呼和浩特市,回民区","lng":"111.62402","lat":"40.80827","pinyin":"Huimin"},{"id":"150104","name":"玉泉区","pid":"150100","shortname":"玉泉","level":"3","citycode":"471","zipcode":"10020","merger_name":"中国,内蒙古自治区,呼和浩特市,玉泉区","lng":"111.67456","lat":"40.75227","pinyin":"Yuquan"},{"id":"150105","name":"赛罕区","pid":"150100","shortname":"赛罕","level":"3","citycode":"471","zipcode":"10020","merger_name":"中国,内蒙古自治区,呼和浩特市,赛罕区","lng":"111.70224","lat":"40.79207","pinyin":"Saihan"},{"id":"150121","name":"土默特左旗","pid":"150100","shortname":"土默特左旗","level":"3","citycode":"471","zipcode":"10100","merger_name":"中国,内蒙古自治区,呼和浩特市,土默特左旗","lng":"111.14898","lat":"40.72229","pinyin":"Tumotezuoqi"},{"id":"150122","name":"托克托县","pid":"150100","shortname":"托克托","level":"3","citycode":"471","zipcode":"10200","merger_name":"中国,内蒙古自治区,呼和浩特市,托克托县","lng":"111.19101","lat":"40.27492","pinyin":"Tuoketuo"},{"id":"150123","name":"和林格尔县","pid":"150100","shortname":"和林格尔","level":"3","citycode":"471","zipcode":"11500","merger_name":"中国,内蒙古自治区,呼和浩特市,和林格尔县","lng":"111.82205","lat":"40.37892","pinyin":"Helingeer"},{"id":"150124","name":"清水河县","pid":"150100","shortname":"清水河","level":"3","citycode":"471","zipcode":"11600","merger_name":"中国,内蒙古自治区,呼和浩特市,清水河县","lng":"111.68316","lat":"39.9097","pinyin":"Qingshuihe"},{"id":"150125","name":"武川县","pid":"150100","shortname":"武川","level":"3","citycode":"471","zipcode":"11700","merger_name":"中国,内蒙古自治区,呼和浩特市,武川县","lng":"111.45785","lat":"41.09289","pinyin":"Wuchuan"}]},{"id":"150200","name":"包头市","pid":"150000","shortname":"包头","level":"2","citycode":"472","zipcode":"14025","merger_name":"中国,内蒙古自治区,包头市","lng":"109.840405","lat":"40.658168","pinyin":"Baotou","area":[{"id":"150202","name":"东河区","pid":"150200","shortname":"东河","level":"3","citycode":"472","zipcode":"14040","merger_name":"中国,内蒙古自治区,包头市,东河区","lng":"110.0462","lat":"40.58237","pinyin":"Donghe"},{"id":"150203","name":"昆都仑区","pid":"150200","shortname":"昆都仑","level":"3","citycode":"472","zipcode":"14010","merger_name":"中国,内蒙古自治区,包头市,昆都仑区","lng":"109.83862","lat":"40.64175","pinyin":"Kundulun"},{"id":"150204","name":"青山区","pid":"150200","shortname":"青山","level":"3","citycode":"472","zipcode":"14030","merger_name":"中国,内蒙古自治区,包头市,青山区","lng":"109.90131","lat":"40.64329","pinyin":"Qingshan"},{"id":"150205","name":"石拐区","pid":"150200","shortname":"石拐","level":"3","citycode":"472","zipcode":"14070","merger_name":"中国,内蒙古自治区,包头市,石拐区","lng":"110.27322","lat":"40.67297","pinyin":"Shiguai"},{"id":"150206","name":"白云鄂博矿区","pid":"150200","shortname":"白云鄂博矿区","level":"3","citycode":"472","zipcode":"14080","merger_name":"中国,内蒙古自治区,包头市,白云鄂博矿区","lng":"109.97367","lat":"41.76968","pinyin":"Baiyunebokuangqu"},{"id":"150207","name":"九原区","pid":"150200","shortname":"九原","level":"3","citycode":"472","zipcode":"14060","merger_name":"中国,内蒙古自治区,包头市,九原区","lng":"109.96496","lat":"40.60554","pinyin":"Jiuyuan"},{"id":"150221","name":"土默特右旗","pid":"150200","shortname":"土默特右旗","level":"3","citycode":"472","zipcode":"14100","merger_name":"中国,内蒙古自治区,包头市,土默特右旗","lng":"110.52417","lat":"40.5688","pinyin":"Tumoteyouqi"},{"id":"150222","name":"固阳县","pid":"150200","shortname":"固阳","level":"3","citycode":"472","zipcode":"14200","merger_name":"中国,内蒙古自治区,包头市,固阳县","lng":"110.06372","lat":"41.01851","pinyin":"Guyang"},{"id":"150223","name":"达尔罕茂明安联合旗","pid":"150200","shortname":"达茂旗","level":"3","citycode":"472","zipcode":"14500","merger_name":"中国,内蒙古自治区,包头市,达尔罕茂明安联合旗","lng":"110.43258","lat":"41.69875","pinyin":"Damaoqi"}]},{"id":"150300","name":"乌海市","pid":"150000","shortname":"乌海","level":"2","citycode":"473","zipcode":"16000","merger_name":"中国,内蒙古自治区,乌海市","lng":"106.825563","lat":"39.673734","pinyin":"Wuhai","area":[{"id":"150302","name":"海勃湾区","pid":"150300","shortname":"海勃湾","level":"3","citycode":"473","zipcode":"16000","merger_name":"中国,内蒙古自治区,乌海市,海勃湾区","lng":"106.8222","lat":"39.66955","pinyin":"Haibowan"},{"id":"150303","name":"海南区","pid":"150300","shortname":"海南","level":"3","citycode":"473","zipcode":"16030","merger_name":"中国,内蒙古自治区,乌海市,海南区","lng":"106.88656","lat":"39.44128","pinyin":"Hainan"},{"id":"150304","name":"乌达区","pid":"150300","shortname":"乌达","level":"3","citycode":"473","zipcode":"16040","merger_name":"中国,内蒙古自治区,乌海市,乌达区","lng":"106.72723","lat":"39.505","pinyin":"Wuda"}]},{"id":"150400","name":"赤峰市","pid":"150000","shortname":"赤峰","level":"2","citycode":"476","zipcode":"24000","merger_name":"中国,内蒙古自治区,赤峰市","lng":"118.956806","lat":"42.275317","pinyin":"Chifeng","area":[{"id":"150402","name":"红山区","pid":"150400","shortname":"红山","level":"3","citycode":"476","zipcode":"24020","merger_name":"中国,内蒙古自治区,赤峰市,红山区","lng":"118.95755","lat":"42.24312","pinyin":"Hongshan"},{"id":"150403","name":"元宝山区","pid":"150400","shortname":"元宝山","level":"3","citycode":"476","zipcode":"24076","merger_name":"中国,内蒙古自治区,赤峰市,元宝山区","lng":"119.28921","lat":"42.04005","pinyin":"Yuanbaoshan"},{"id":"150404","name":"松山区","pid":"150400","shortname":"松山","level":"3","citycode":"476","zipcode":"24005","merger_name":"中国,内蒙古自治区,赤峰市,松山区","lng":"118.9328","lat":"42.28613","pinyin":"Songshan"},{"id":"150421","name":"阿鲁科尔沁旗","pid":"150400","shortname":"阿鲁科尔沁旗","level":"3","citycode":"476","zipcode":"25550","merger_name":"中国,内蒙古自治区,赤峰市,阿鲁科尔沁旗","lng":"120.06527","lat":"43.87988","pinyin":"Alukeerqinqi"},{"id":"150422","name":"巴林左旗","pid":"150400","shortname":"巴林左旗","level":"3","citycode":"476","zipcode":"25450","merger_name":"中国,内蒙古自治区,赤峰市,巴林左旗","lng":"119.38012","lat":"43.97031","pinyin":"Balinzuoqi"},{"id":"150423","name":"巴林右旗","pid":"150400","shortname":"巴林右旗","level":"3","citycode":"476","zipcode":"25150","merger_name":"中国,内蒙古自治区,赤峰市,巴林右旗","lng":"118.66461","lat":"43.53387","pinyin":"Balinyouqi"},{"id":"150424","name":"林西县","pid":"150400","shortname":"林西","level":"3","citycode":"476","zipcode":"25250","merger_name":"中国,内蒙古自治区,赤峰市,林西县","lng":"118.04733","lat":"43.61165","pinyin":"Linxi"},{"id":"150425","name":"克什克腾旗","pid":"150400","shortname":"克什克腾旗","level":"3","citycode":"476","zipcode":"25350","merger_name":"中国,内蒙古自治区,赤峰市,克什克腾旗","lng":"117.54562","lat":"43.26501","pinyin":"Keshiketengqi"},{"id":"150426","name":"翁牛特旗","pid":"150400","shortname":"翁牛特旗","level":"3","citycode":"476","zipcode":"24500","merger_name":"中国,内蒙古自治区,赤峰市,翁牛特旗","lng":"119.03042","lat":"42.93147","pinyin":"Wengniuteqi"},{"id":"150428","name":"喀喇沁旗","pid":"150400","shortname":"喀喇沁旗","level":"3","citycode":"476","zipcode":"24400","merger_name":"中国,内蒙古自治区,赤峰市,喀喇沁旗","lng":"118.70144","lat":"41.92917","pinyin":"Kalaqinqi"},{"id":"150429","name":"宁城县","pid":"150400","shortname":"宁城","level":"3","citycode":"476","zipcode":"24200","merger_name":"中国,内蒙古自治区,赤峰市,宁城县","lng":"119.34375","lat":"41.59661","pinyin":"Ningcheng"},{"id":"150430","name":"敖汉旗","pid":"150400","shortname":"敖汉旗","level":"3","citycode":"476","zipcode":"24300","merger_name":"中国,内蒙古自治区,赤峰市,敖汉旗","lng":"119.92163","lat":"42.29071","pinyin":"Aohanqi"}]},{"id":"150500","name":"通辽市","pid":"150000","shortname":"通辽","level":"2","citycode":"475","zipcode":"28000","merger_name":"中国,内蒙古自治区,通辽市","lng":"122.263119","lat":"43.617429","pinyin":"Tongliao","area":[{"id":"150502","name":"科尔沁区","pid":"150500","shortname":"科尔沁","level":"3","citycode":"475","zipcode":"28000","merger_name":"中国,内蒙古自治区,通辽市,科尔沁区","lng":"122.25573","lat":"43.62257","pinyin":"Keerqin"},{"id":"150521","name":"科尔沁左翼中旗","pid":"150500","shortname":"科尔沁左翼中旗","level":"3","citycode":"475","zipcode":"29300","merger_name":"中国,内蒙古自治区,通辽市,科尔沁左翼中旗","lng":"123.31912","lat":"44.13014","pinyin":"Keerqinzuoyizhongqi"},{"id":"150522","name":"科尔沁左翼后旗","pid":"150500","shortname":"科尔沁左翼后旗","level":"3","citycode":"475","zipcode":"28100","merger_name":"中国,内蒙古自治区,通辽市,科尔沁左翼后旗","lng":"122.35745","lat":"42.94897","pinyin":"Keerqinzuoyihouqi"},{"id":"150523","name":"开鲁县","pid":"150500","shortname":"开鲁","level":"3","citycode":"475","zipcode":"28400","merger_name":"中国,内蒙古自治区,通辽市,开鲁县","lng":"121.31884","lat":"43.60003","pinyin":"Kailu"},{"id":"150524","name":"库伦旗","pid":"150500","shortname":"库伦旗","level":"3","citycode":"475","zipcode":"28200","merger_name":"中国,内蒙古自治区,通辽市,库伦旗","lng":"121.776","lat":"42.72998","pinyin":"Kulunqi"},{"id":"150525","name":"奈曼旗","pid":"150500","shortname":"奈曼旗","level":"3","citycode":"475","zipcode":"28300","merger_name":"中国,内蒙古自治区,通辽市,奈曼旗","lng":"120.66348","lat":"42.84527","pinyin":"Naimanqi"},{"id":"150526","name":"扎鲁特旗","pid":"150500","shortname":"扎鲁特旗","level":"3","citycode":"475","zipcode":"29100","merger_name":"中国,内蒙古自治区,通辽市,扎鲁特旗","lng":"120.91507","lat":"44.55592","pinyin":"Zhaluteqi"},{"id":"150581","name":"霍林郭勒市","pid":"150500","shortname":"霍林郭勒","level":"3","citycode":"475","zipcode":"29200","merger_name":"中国,内蒙古自治区,通辽市,霍林郭勒市","lng":"119.65429","lat":"45.53454","pinyin":"Huolinguole"}]},{"id":"150600","name":"鄂尔多斯市","pid":"150000","shortname":"鄂尔多斯","level":"2","citycode":"477","zipcode":"17004","merger_name":"中国,内蒙古自治区,鄂尔多斯市","lng":"109.99029","lat":"39.817179","pinyin":"Ordos","area":[{"id":"150602","name":"东胜区","pid":"150600","shortname":"东胜","level":"3","citycode":"477","zipcode":"17000","merger_name":"中国,内蒙古自治区,鄂尔多斯市,东胜区","lng":"109.96289","lat":"39.82236","pinyin":"Dongsheng"},{"id":"150621","name":"达拉特旗","pid":"150600","shortname":"达拉特旗","level":"3","citycode":"477","zipcode":"14300","merger_name":"中国,内蒙古自治区,鄂尔多斯市,达拉特旗","lng":"110.03317","lat":"40.4001","pinyin":"Dalateqi"},{"id":"150622","name":"准格尔旗","pid":"150600","shortname":"准格尔旗","level":"3","citycode":"477","zipcode":"17100","merger_name":"中国,内蒙古自治区,鄂尔多斯市,准格尔旗","lng":"111.23645","lat":"39.86783","pinyin":"Zhungeerqi"},{"id":"150623","name":"鄂托克前旗","pid":"150600","shortname":"鄂托克前旗","level":"3","citycode":"477","zipcode":"16200","merger_name":"中国,内蒙古自治区,鄂尔多斯市,鄂托克前旗","lng":"107.48403","lat":"38.18396","pinyin":"Etuokeqianqi"},{"id":"150624","name":"鄂托克旗","pid":"150600","shortname":"鄂托克旗","level":"3","citycode":"477","zipcode":"16100","merger_name":"中国,内蒙古自治区,鄂尔多斯市,鄂托克旗","lng":"107.98226","lat":"39.09456","pinyin":"Etuokeqi"},{"id":"150625","name":"杭锦旗","pid":"150600","shortname":"杭锦旗","level":"3","citycode":"477","zipcode":"17400","merger_name":"中国,内蒙古自治区,鄂尔多斯市,杭锦旗","lng":"108.72934","lat":"39.84023","pinyin":"Hangjinqi"},{"id":"150626","name":"乌审旗","pid":"150600","shortname":"乌审旗","level":"3","citycode":"477","zipcode":"17300","merger_name":"中国,内蒙古自治区,鄂尔多斯市,乌审旗","lng":"108.8461","lat":"38.59092","pinyin":"Wushenqi"},{"id":"150627","name":"伊金霍洛旗","pid":"150600","shortname":"伊金霍洛旗","level":"3","citycode":"477","zipcode":"17200","merger_name":"中国,内蒙古自治区,鄂尔多斯市,伊金霍洛旗","lng":"109.74908","lat":"39.57393","pinyin":"Yijinhuoluoqi"}]},{"id":"150700","name":"呼伦贝尔市","pid":"150000","shortname":"呼伦贝尔","level":"2","citycode":"470","zipcode":"21008","merger_name":"中国,内蒙古自治区,呼伦贝尔市","lng":"119.758168","lat":"49.215333","pinyin":"Hulunber","area":[{"id":"150702","name":"海拉尔区","pid":"150700","shortname":"海拉尔","level":"3","citycode":"470","zipcode":"21000","merger_name":"中国,内蒙古自治区,呼伦贝尔市,海拉尔区","lng":"119.7364","lat":"49.2122","pinyin":"Hailaer"},{"id":"150703","name":"扎赉诺尔区","pid":"150700","shortname":"扎赉诺尔","level":"3","citycode":"470","zipcode":"21410","merger_name":"中国,内蒙古自治区,呼伦贝尔市,扎赉诺尔区","lng":"117.792702","lat":"49.486943","pinyin":"Zhalainuoer"},{"id":"150721","name":"阿荣旗","pid":"150700","shortname":"阿荣旗","level":"3","citycode":"470","zipcode":"162750","merger_name":"中国,内蒙古自治区,呼伦贝尔市,阿荣旗","lng":"123.45941","lat":"48.12581","pinyin":"Arongqi"},{"id":"150722","name":"莫力达瓦达斡尔族自治旗","pid":"150700","shortname":"莫旗","level":"3","citycode":"470","zipcode":"162850","merger_name":"中国,内蒙古自治区,呼伦贝尔市,莫力达瓦达斡尔族自治旗","lng":"124.51498","lat":"48.48055","pinyin":"Moqi"},{"id":"150723","name":"鄂伦春自治旗","pid":"150700","shortname":"鄂伦春","level":"3","citycode":"470","zipcode":"165450","merger_name":"中国,内蒙古自治区,呼伦贝尔市,鄂伦春自治旗","lng":"123.72604","lat":"50.59777","pinyin":"Elunchun"},{"id":"150724","name":"鄂温克族自治旗","pid":"150700","shortname":"鄂温","level":"3","citycode":"470","zipcode":"21100","merger_name":"中国,内蒙古自治区,呼伦贝尔市,鄂温克族自治旗","lng":"119.7565","lat":"49.14284","pinyin":"Ewen"},{"id":"150725","name":"陈巴尔虎旗","pid":"150700","shortname":"陈巴尔虎旗","level":"3","citycode":"470","zipcode":"21500","merger_name":"中国,内蒙古自治区,呼伦贝尔市,陈巴尔虎旗","lng":"119.42434","lat":"49.32684","pinyin":"Chenbaerhuqi"},{"id":"150726","name":"新巴尔虎左旗","pid":"150700","shortname":"新巴尔虎左旗","level":"3","citycode":"470","zipcode":"21200","merger_name":"中国,内蒙古自治区,呼伦贝尔市,新巴尔虎左旗","lng":"118.26989","lat":"48.21842","pinyin":"Xinbaerhuzuoqi"},{"id":"150727","name":"新巴尔虎右旗","pid":"150700","shortname":"新巴尔虎右旗","level":"3","citycode":"470","zipcode":"21300","merger_name":"中国,内蒙古自治区,呼伦贝尔市,新巴尔虎右旗","lng":"116.82366","lat":"48.66473","pinyin":"Xinbaerhuyouqi"},{"id":"150781","name":"满洲里市","pid":"150700","shortname":"满洲里","level":"3","citycode":"470","zipcode":"21400","merger_name":"中国,内蒙古自治区,呼伦贝尔市,满洲里市","lng":"117.47946","lat":"49.58272","pinyin":"Manzhouli"},{"id":"150782","name":"牙克石市","pid":"150700","shortname":"牙克石","level":"3","citycode":"470","zipcode":"22150","merger_name":"中国,内蒙古自治区,呼伦贝尔市,牙克石市","lng":"120.7117","lat":"49.2856","pinyin":"Yakeshi"},{"id":"150783","name":"扎兰屯市","pid":"150700","shortname":"扎兰屯","level":"3","citycode":"470","zipcode":"162650","merger_name":"中国,内蒙古自治区,呼伦贝尔市,扎兰屯市","lng":"122.73757","lat":"48.01363","pinyin":"Zhalantun"},{"id":"150784","name":"额尔古纳市","pid":"150700","shortname":"额尔古纳","level":"3","citycode":"470","zipcode":"22250","merger_name":"中国,内蒙古自治区,呼伦贝尔市,额尔古纳市","lng":"120.19094","lat":"50.24249","pinyin":"Eerguna"},{"id":"150785","name":"根河市","pid":"150700","shortname":"根河","level":"3","citycode":"470","zipcode":"22350","merger_name":"中国,内蒙古自治区,呼伦贝尔市,根河市","lng":"121.52197","lat":"50.77996","pinyin":"Genhe"}]},{"id":"150800","name":"巴彦淖尔市","pid":"150000","shortname":"巴彦淖尔","level":"2","citycode":"478","zipcode":"15001","merger_name":"中国,内蒙古自治区,巴彦淖尔市","lng":"107.416959","lat":"40.757402","pinyin":"Bayan Nur","area":[{"id":"150802","name":"临河区","pid":"150800","shortname":"临河","level":"3","citycode":"478","zipcode":"15001","merger_name":"中国,内蒙古自治区,巴彦淖尔市,临河区","lng":"107.42668","lat":"40.75827","pinyin":"Linhe"},{"id":"150821","name":"五原县","pid":"150800","shortname":"五原","level":"3","citycode":"478","zipcode":"15100","merger_name":"中国,内蒙古自治区,巴彦淖尔市,五原县","lng":"108.26916","lat":"41.09631","pinyin":"Wuyuan"},{"id":"150822","name":"磴口县","pid":"150800","shortname":"磴口","level":"3","citycode":"478","zipcode":"15200","merger_name":"中国,内蒙古自治区,巴彦淖尔市,磴口县","lng":"107.00936","lat":"40.33062","pinyin":"Dengkou"},{"id":"150823","name":"乌拉特前旗","pid":"150800","shortname":"乌拉特前旗","level":"3","citycode":"478","zipcode":"14400","merger_name":"中国,内蒙古自治区,巴彦淖尔市,乌拉特前旗","lng":"108.65219","lat":"40.73649","pinyin":"Wulateqianqi"},{"id":"150824","name":"乌拉特中旗","pid":"150800","shortname":"乌拉特中旗","level":"3","citycode":"478","zipcode":"15300","merger_name":"中国,内蒙古自治区,巴彦淖尔市,乌拉特中旗","lng":"108.52587","lat":"41.56789","pinyin":"Wulatezhongqi"},{"id":"150825","name":"乌拉特后旗","pid":"150800","shortname":"乌拉特后旗","level":"3","citycode":"478","zipcode":"15500","merger_name":"中国,内蒙古自治区,巴彦淖尔市,乌拉特后旗","lng":"106.98971","lat":"41.43151","pinyin":"Wulatehouqi"},{"id":"150826","name":"杭锦后旗","pid":"150800","shortname":"杭锦后旗","level":"3","citycode":"478","zipcode":"15400","merger_name":"中国,内蒙古自治区,巴彦淖尔市,杭锦后旗","lng":"107.15133","lat":"40.88627","pinyin":"Hangjinhouqi"}]},{"id":"150900","name":"乌兰察布市","pid":"150000","shortname":"乌兰察布","level":"2","citycode":"474","zipcode":"12000","merger_name":"中国,内蒙古自治区,乌兰察布市","lng":"113.114543","lat":"41.034126","pinyin":"Ulanqab","area":[{"id":"150902","name":"集宁区","pid":"150900","shortname":"集宁","level":"3","citycode":"474","zipcode":"12000","merger_name":"中国,内蒙古自治区,乌兰察布市,集宁区","lng":"113.11452","lat":"41.0353","pinyin":"Jining"},{"id":"150921","name":"卓资县","pid":"150900","shortname":"卓资","level":"3","citycode":"474","zipcode":"12300","merger_name":"中国,内蒙古自治区,乌兰察布市,卓资县","lng":"112.57757","lat":"40.89414","pinyin":"Zhuozi"},{"id":"150922","name":"化德县","pid":"150900","shortname":"化德","level":"3","citycode":"474","zipcode":"13350","merger_name":"中国,内蒙古自治区,乌兰察布市,化德县","lng":"114.01071","lat":"41.90433","pinyin":"Huade"},{"id":"150923","name":"商都县","pid":"150900","shortname":"商都","level":"3","citycode":"474","zipcode":"13450","merger_name":"中国,内蒙古自治区,乌兰察布市,商都县","lng":"113.57772","lat":"41.56213","pinyin":"Shangdu"},{"id":"150924","name":"兴和县","pid":"150900","shortname":"兴和","level":"3","citycode":"474","zipcode":"13650","merger_name":"中国,内蒙古自治区,乌兰察布市,兴和县","lng":"113.83395","lat":"40.87186","pinyin":"Xinghe"},{"id":"150925","name":"凉城县","pid":"150900","shortname":"凉城","level":"3","citycode":"474","zipcode":"13750","merger_name":"中国,内蒙古自治区,乌兰察布市,凉城县","lng":"112.49569","lat":"40.53346","pinyin":"Liangcheng"},{"id":"150926","name":"察哈尔右翼前旗","pid":"150900","shortname":"察右前旗","level":"3","citycode":"474","zipcode":"12200","merger_name":"中国,内蒙古自治区,乌兰察布市,察哈尔右翼前旗","lng":"113.22131","lat":"40.7788","pinyin":"Chayouqianqi"},{"id":"150927","name":"察哈尔右翼中旗","pid":"150900","shortname":"察右中旗","level":"3","citycode":"474","zipcode":"13550","merger_name":"中国,内蒙古自治区,乌兰察布市,察哈尔右翼中旗","lng":"112.63537","lat":"41.27742","pinyin":"Chayouzhongqi"},{"id":"150928","name":"察哈尔右翼后旗","pid":"150900","shortname":"察右后旗","level":"3","citycode":"474","zipcode":"12400","merger_name":"中国,内蒙古自治区,乌兰察布市,察哈尔右翼后旗","lng":"113.19216","lat":"41.43554","pinyin":"Chayouhouqi"},{"id":"150929","name":"四子王旗","pid":"150900","shortname":"四子王旗","level":"3","citycode":"474","zipcode":"11800","merger_name":"中国,内蒙古自治区,乌兰察布市,四子王旗","lng":"111.70654","lat":"41.53312","pinyin":"Siziwangqi"},{"id":"150981","name":"丰镇市","pid":"150900","shortname":"丰镇","level":"3","citycode":"474","zipcode":"12100","merger_name":"中国,内蒙古自治区,乌兰察布市,丰镇市","lng":"113.10983","lat":"40.4369","pinyin":"Fengzhen"}]},{"id":"152200","name":"兴安盟","pid":"150000","shortname":"兴安盟","level":"2","citycode":"482","zipcode":"137401","merger_name":"中国,内蒙古自治区,兴安盟","lng":"122.070317","lat":"46.076268","pinyin":"Hinggan","area":[{"id":"152201","name":"乌兰浩特市","pid":"152200","shortname":"乌兰浩特","level":"3","citycode":"482","zipcode":"137401","merger_name":"中国,内蒙古自治区,兴安盟,乌兰浩特市","lng":"122.06378","lat":"46.06235","pinyin":"Wulanhaote"},{"id":"152202","name":"阿尔山市","pid":"152200","shortname":"阿尔山","level":"3","citycode":"482","zipcode":"137800","merger_name":"中国,内蒙古自治区,兴安盟,阿尔山市","lng":"119.94317","lat":"47.17716","pinyin":"Aershan"},{"id":"152221","name":"科尔沁右翼前旗","pid":"152200","shortname":"科右前旗","level":"3","citycode":"482","zipcode":"137423","merger_name":"中国,内蒙古自治区,兴安盟,科尔沁右翼前旗","lng":"121.95269","lat":"46.0795","pinyin":"Keyouqianqi"},{"id":"152222","name":"科尔沁右翼中旗","pid":"152200","shortname":"科右中旗","level":"3","citycode":"482","zipcode":"29400","merger_name":"中国,内蒙古自治区,兴安盟,科尔沁右翼中旗","lng":"121.46807","lat":"45.05605","pinyin":"Keyouzhongqi"},{"id":"152223","name":"扎赉特旗","pid":"152200","shortname":"扎赉特旗","level":"3","citycode":"482","zipcode":"137600","merger_name":"中国,内蒙古自治区,兴安盟,扎赉特旗","lng":"122.91229","lat":"46.7267","pinyin":"Zhalaiteqi"},{"id":"152224","name":"突泉县","pid":"152200","shortname":"突泉","level":"3","citycode":"482","zipcode":"137500","merger_name":"中国,内蒙古自治区,兴安盟,突泉县","lng":"121.59396","lat":"45.38187","pinyin":"Tuquan"}]},{"id":"152500","name":"锡林郭勒盟","pid":"150000","shortname":"锡林郭勒盟","level":"2","citycode":"479","zipcode":"26000","merger_name":"中国,内蒙古自治区,锡林郭勒盟","lng":"116.090996","lat":"43.944018","pinyin":"Xilin Gol","area":[{"id":"152501","name":"二连浩特市","pid":"152500","shortname":"二连浩特","level":"3","citycode":"479","zipcode":"11100","merger_name":"中国,内蒙古自治区,锡林郭勒盟,二连浩特市","lng":"111.98297","lat":"43.65303","pinyin":"Erlianhaote"},{"id":"152502","name":"锡林浩特市","pid":"152500","shortname":"锡林浩特","level":"3","citycode":"479","zipcode":"26021","merger_name":"中国,内蒙古自治区,锡林郭勒盟,锡林浩特市","lng":"116.08603","lat":"43.93341","pinyin":"Xilinhaote"},{"id":"152522","name":"阿巴嘎旗","pid":"152500","shortname":"阿巴嘎旗","level":"3","citycode":"479","zipcode":"11400","merger_name":"中国,内蒙古自治区,锡林郭勒盟,阿巴嘎旗","lng":"114.96826","lat":"44.02174","pinyin":"Abagaqi"},{"id":"152523","name":"苏尼特左旗","pid":"152500","shortname":"苏尼特左旗","level":"3","citycode":"479","zipcode":"11300","merger_name":"中国,内蒙古自治区,锡林郭勒盟,苏尼特左旗","lng":"113.6506","lat":"43.85687","pinyin":"Sunitezuoqi"},{"id":"152524","name":"苏尼特右旗","pid":"152500","shortname":"苏尼特右旗","level":"3","citycode":"479","zipcode":"11200","merger_name":"中国,内蒙古自治区,锡林郭勒盟,苏尼特右旗","lng":"112.65741","lat":"42.7469","pinyin":"Suniteyouqi"},{"id":"152525","name":"东乌珠穆沁旗","pid":"152500","shortname":"东乌旗","level":"3","citycode":"479","zipcode":"26300","merger_name":"中国,内蒙古自治区,锡林郭勒盟,东乌珠穆沁旗","lng":"116.97293","lat":"45.51108","pinyin":"Dongwuqi"},{"id":"152526","name":"西乌珠穆沁旗","pid":"152500","shortname":"西乌旗","level":"3","citycode":"479","zipcode":"26200","merger_name":"中国,内蒙古自治区,锡林郭勒盟,西乌珠穆沁旗","lng":"117.60983","lat":"44.59623","pinyin":"Xiwuqi"},{"id":"152527","name":"太仆寺旗","pid":"152500","shortname":"太仆寺旗","level":"3","citycode":"479","zipcode":"27000","merger_name":"中国,内蒙古自治区,锡林郭勒盟,太仆寺旗","lng":"115.28302","lat":"41.87727","pinyin":"Taipusiqi"},{"id":"152528","name":"镶黄旗","pid":"152500","shortname":"镶黄旗","level":"3","citycode":"479","zipcode":"13250","merger_name":"中国,内蒙古自治区,锡林郭勒盟,镶黄旗","lng":"113.84472","lat":"42.23927","pinyin":"Xianghuangqi"},{"id":"152529","name":"正镶白旗","pid":"152500","shortname":"正镶白旗","level":"3","citycode":"479","zipcode":"13800","merger_name":"中国,内蒙古自治区,锡林郭勒盟,正镶白旗","lng":"115.00067","lat":"42.30712","pinyin":"Zhengxiangbaiqi"},{"id":"152530","name":"正蓝旗","pid":"152500","shortname":"正蓝旗","level":"3","citycode":"479","zipcode":"27200","merger_name":"中国,内蒙古自治区,锡林郭勒盟,正蓝旗","lng":"116.00363","lat":"42.25229","pinyin":"Zhenglanqi"},{"id":"152531","name":"多伦县","pid":"152500","shortname":"多伦","level":"3","citycode":"479","zipcode":"27300","merger_name":"中国,内蒙古自治区,锡林郭勒盟,多伦县","lng":"116.48565","lat":"42.203","pinyin":"Duolun"}]},{"id":"152900","name":"阿拉善盟","pid":"150000","shortname":"阿拉善盟","level":"2","citycode":"483","zipcode":"750306","merger_name":"中国,内蒙古自治区,阿拉善盟","lng":"105.706422","lat":"38.844814","pinyin":"Alxa","area":[{"id":"152921","name":"阿拉善左旗","pid":"152900","shortname":"阿拉善左旗","level":"3","citycode":"483","zipcode":"750306","merger_name":"中国,内蒙古自治区,阿拉善盟,阿拉善左旗","lng":"105.67532","lat":"38.8293","pinyin":"Alashanzuoqi"},{"id":"152922","name":"阿拉善右旗","pid":"152900","shortname":"阿拉善右旗","level":"3","citycode":"483","zipcode":"737300","merger_name":"中国,内蒙古自治区,阿拉善盟,阿拉善右旗","lng":"101.66705","lat":"39.21533","pinyin":"Alashanyouqi"},{"id":"152923","name":"额济纳旗","pid":"152900","shortname":"额济纳旗","level":"3","citycode":"483","zipcode":"735400","merger_name":"中国,内蒙古自治区,阿拉善盟,额济纳旗","lng":"101.06887","lat":"41.96755","pinyin":"Ejinaqi"}]}]},{"id":"210000","name":"辽宁省","pid":"100000","shortname":"辽宁","level":"1","citycode":"","zipcode":"","merger_name":"中国,辽宁省","lng":"123.429096","lat":"41.796767","pinyin":"Liaoning","city":[{"id":"210100","name":"沈阳市","pid":"210000","shortname":"沈阳","level":"2","citycode":"24","zipcode":"110013","merger_name":"中国,辽宁省,沈阳市","lng":"123.429096","lat":"41.796767","pinyin":"Shenyang","area":[{"id":"210102","name":"和平区","pid":"210100","shortname":"和平","level":"3","citycode":"24","zipcode":"110001","merger_name":"中国,辽宁省,沈阳市,和平区","lng":"123.4204","lat":"41.78997","pinyin":"Heping"},{"id":"210103","name":"沈河区","pid":"210100","shortname":"沈河","level":"3","citycode":"24","zipcode":"110011","merger_name":"中国,辽宁省,沈阳市,沈河区","lng":"123.45871","lat":"41.79625","pinyin":"Shenhe"},{"id":"210104","name":"大东区","pid":"210100","shortname":"大东","level":"3","citycode":"24","zipcode":"110041","merger_name":"中国,辽宁省,沈阳市,大东区","lng":"123.46997","lat":"41.80539","pinyin":"Dadong"},{"id":"210105","name":"皇姑区","pid":"210100","shortname":"皇姑","level":"3","citycode":"24","zipcode":"110031","merger_name":"中国,辽宁省,沈阳市,皇姑区","lng":"123.42527","lat":"41.82035","pinyin":"Huanggu"},{"id":"210106","name":"铁西区","pid":"210100","shortname":"铁西","level":"3","citycode":"24","zipcode":"110021","merger_name":"中国,辽宁省,沈阳市,铁西区","lng":"123.37675","lat":"41.80269","pinyin":"Tiexi"},{"id":"210111","name":"苏家屯区","pid":"210100","shortname":"苏家屯","level":"3","citycode":"24","zipcode":"110101","merger_name":"中国,辽宁省,沈阳市,苏家屯区","lng":"123.34405","lat":"41.66475","pinyin":"Sujiatun"},{"id":"210112","name":"浑南区","pid":"210100","shortname":"浑南","level":"3","citycode":"24","zipcode":"110015","merger_name":"中国,辽宁省,沈阳市,浑南区","lng":"123.457707","lat":"41.71945","pinyin":"Hunnan"},{"id":"210113","name":"沈北新区","pid":"210100","shortname":"沈北新区","level":"3","citycode":"24","zipcode":"110121","merger_name":"中国,辽宁省,沈阳市,沈北新区","lng":"123.52658","lat":"42.05297","pinyin":"Shenbeixinqu"},{"id":"210114","name":"于洪区","pid":"210100","shortname":"于洪","level":"3","citycode":"24","zipcode":"110141","merger_name":"中国,辽宁省,沈阳市,于洪区","lng":"123.30807","lat":"41.794","pinyin":"Yuhong"},{"id":"210122","name":"辽中县","pid":"210100","shortname":"辽中","level":"3","citycode":"24","zipcode":"110200","merger_name":"中国,辽宁省,沈阳市,辽中县","lng":"122.72659","lat":"41.51302","pinyin":"Liaozhong"},{"id":"210123","name":"康平县","pid":"210100","shortname":"康平","level":"3","citycode":"24","zipcode":"110500","merger_name":"中国,辽宁省,沈阳市,康平县","lng":"123.35446","lat":"42.75081","pinyin":"Kangping"},{"id":"210124","name":"法库县","pid":"210100","shortname":"法库","level":"3","citycode":"24","zipcode":"110400","merger_name":"中国,辽宁省,沈阳市,法库县","lng":"123.41214","lat":"42.50608","pinyin":"Faku"},{"id":"210181","name":"新民市","pid":"210100","shortname":"新民","level":"3","citycode":"24","zipcode":"110300","merger_name":"中国,辽宁省,沈阳市,新民市","lng":"122.82867","lat":"41.99847","pinyin":"Xinmin"}]},{"id":"210200","name":"大连市","pid":"210000","shortname":"大连","level":"2","citycode":"411","zipcode":"116011","merger_name":"中国,辽宁省,大连市","lng":"121.618622","lat":"38.91459","pinyin":"Dalian","area":[{"id":"210202","name":"中山区","pid":"210200","shortname":"中山","level":"3","citycode":"411","zipcode":"116001","merger_name":"中国,辽宁省,大连市,中山区","lng":"121.64465","lat":"38.91859","pinyin":"Zhongshan"},{"id":"210203","name":"西岗区","pid":"210200","shortname":"西岗","level":"3","citycode":"411","zipcode":"116011","merger_name":"中国,辽宁省,大连市,西岗区","lng":"121.61238","lat":"38.91469","pinyin":"Xigang"},{"id":"210204","name":"沙河口区","pid":"210200","shortname":"沙河口","level":"3","citycode":"411","zipcode":"116021","merger_name":"中国,辽宁省,大连市,沙河口区","lng":"121.58017","lat":"38.90536","pinyin":"Shahekou"},{"id":"210211","name":"甘井子区","pid":"210200","shortname":"甘井子","level":"3","citycode":"411","zipcode":"116033","merger_name":"中国,辽宁省,大连市,甘井子区","lng":"121.56567","lat":"38.95017","pinyin":"Ganjingzi"},{"id":"210212","name":"旅顺口区","pid":"210200","shortname":"旅顺口","level":"3","citycode":"411","zipcode":"116041","merger_name":"中国,辽宁省,大连市,旅顺口区","lng":"121.26202","lat":"38.85125","pinyin":"Lvshunkou"},{"id":"210213","name":"金州区","pid":"210200","shortname":"金州","level":"3","citycode":"411","zipcode":"116100","merger_name":"中国,辽宁省,大连市,金州区","lng":"121.71893","lat":"39.1004","pinyin":"Jinzhou"},{"id":"210224","name":"长海县","pid":"210200","shortname":"长海","level":"3","citycode":"411","zipcode":"116500","merger_name":"中国,辽宁省,大连市,长海县","lng":"122.58859","lat":"39.27274","pinyin":"Changhai"},{"id":"210281","name":"瓦房店市","pid":"210200","shortname":"瓦房店","level":"3","citycode":"411","zipcode":"116300","merger_name":"中国,辽宁省,大连市,瓦房店市","lng":"121.98104","lat":"39.62843","pinyin":"Wafangdian"},{"id":"210282","name":"普兰店市","pid":"210200","shortname":"普兰店","level":"3","citycode":"411","zipcode":"116200","merger_name":"中国,辽宁省,大连市,普兰店市","lng":"121.96316","lat":"39.39465","pinyin":"Pulandian"},{"id":"210283","name":"庄河市","pid":"210200","shortname":"庄河","level":"3","citycode":"411","zipcode":"116400","merger_name":"中国,辽宁省,大连市,庄河市","lng":"122.96725","lat":"39.68815","pinyin":"Zhuanghe"}]},{"id":"210300","name":"鞍山市","pid":"210000","shortname":"鞍山","level":"2","citycode":"412","zipcode":"114001","merger_name":"中国,辽宁省,鞍山市","lng":"122.995632","lat":"41.110626","pinyin":"Anshan","area":[{"id":"210302","name":"铁东区","pid":"210300","shortname":"铁东","level":"3","citycode":"412","zipcode":"114001","merger_name":"中国,辽宁省,鞍山市,铁东区","lng":"122.99085","lat":"41.08975","pinyin":"Tiedong"},{"id":"210303","name":"铁西区","pid":"210300","shortname":"铁西","level":"3","citycode":"413","zipcode":"114013","merger_name":"中国,辽宁省,鞍山市,铁西区","lng":"122.96967","lat":"41.11977","pinyin":"Tiexi"},{"id":"210304","name":"立山区","pid":"210300","shortname":"立山","level":"3","citycode":"414","zipcode":"114031","merger_name":"中国,辽宁省,鞍山市,立山区","lng":"123.02948","lat":"41.15008","pinyin":"Lishan"},{"id":"210311","name":"千山区","pid":"210300","shortname":"千山","level":"3","citycode":"415","zipcode":"114041","merger_name":"中国,辽宁省,鞍山市,千山区","lng":"122.96048","lat":"41.07507","pinyin":"Qianshan"},{"id":"210321","name":"台安县","pid":"210300","shortname":"台安","level":"3","citycode":"417","zipcode":"114100","merger_name":"中国,辽宁省,鞍山市,台安县","lng":"122.43585","lat":"41.41265","pinyin":"Tai'an"},{"id":"210323","name":"岫岩满族自治县","pid":"210300","shortname":"岫岩","level":"3","citycode":"418","zipcode":"114300","merger_name":"中国,辽宁省,鞍山市,岫岩满族自治县","lng":"123.28875","lat":"40.27996","pinyin":"Xiuyan"},{"id":"210381","name":"海城市","pid":"210300","shortname":"海城","level":"3","citycode":"416","zipcode":"114200","merger_name":"中国,辽宁省,鞍山市,海城市","lng":"122.68457","lat":"40.88142","pinyin":"Haicheng"}]},{"id":"210400","name":"抚顺市","pid":"210000","shortname":"抚顺","level":"2","citycode":"24","zipcode":"113008","merger_name":"中国,辽宁省,抚顺市","lng":"123.921109","lat":"41.875956","pinyin":"Fushun","area":[{"id":"210402","name":"新抚区","pid":"210400","shortname":"新抚","level":"3","citycode":"24","zipcode":"113008","merger_name":"中国,辽宁省,抚顺市,新抚区","lng":"123.91264","lat":"41.86205","pinyin":"Xinfu"},{"id":"210403","name":"东洲区","pid":"210400","shortname":"东洲","level":"3","citycode":"24","zipcode":"113003","merger_name":"中国,辽宁省,抚顺市,东洲区","lng":"124.03759","lat":"41.8519","pinyin":"Dongzhou"},{"id":"210404","name":"望花区","pid":"210400","shortname":"望花","level":"3","citycode":"24","zipcode":"113001","merger_name":"中国,辽宁省,抚顺市,望花区","lng":"123.78283","lat":"41.85532","pinyin":"Wanghua"},{"id":"210411","name":"顺城区","pid":"210400","shortname":"顺城","level":"3","citycode":"24","zipcode":"113006","merger_name":"中国,辽宁省,抚顺市,顺城区","lng":"123.94506","lat":"41.88321","pinyin":"Shuncheng"},{"id":"210421","name":"抚顺县","pid":"210400","shortname":"抚顺","level":"3","citycode":"24","zipcode":"113006","merger_name":"中国,辽宁省,抚顺市,抚顺县","lng":"124.17755","lat":"41.71217","pinyin":"Fushun"},{"id":"210422","name":"新宾满族自治县","pid":"210400","shortname":"新宾","level":"3","citycode":"24","zipcode":"113200","merger_name":"中国,辽宁省,抚顺市,新宾满族自治县","lng":"125.04049","lat":"41.73409","pinyin":"Xinbin"},{"id":"210423","name":"清原满族自治县","pid":"210400","shortname":"清原","level":"3","citycode":"24","zipcode":"113300","merger_name":"中国,辽宁省,抚顺市,清原满族自治县","lng":"124.92807","lat":"42.10221","pinyin":"Qingyuan"}]},{"id":"210500","name":"本溪市","pid":"210000","shortname":"本溪","level":"2","citycode":"414","zipcode":"117000","merger_name":"中国,辽宁省,本溪市","lng":"123.770519","lat":"41.297909","pinyin":"Benxi","area":[{"id":"210502","name":"平山区","pid":"210500","shortname":"平山","level":"3","citycode":"414","zipcode":"117000","merger_name":"中国,辽宁省,本溪市,平山区","lng":"123.76892","lat":"41.2997","pinyin":"Pingshan"},{"id":"210503","name":"溪湖区","pid":"210500","shortname":"溪湖","level":"3","citycode":"414","zipcode":"117002","merger_name":"中国,辽宁省,本溪市,溪湖区","lng":"123.76764","lat":"41.32921","pinyin":"Xihu"},